[
  {
    "end_date": "2019-07-17",
    "url": "https://elixir-belgium.github.io/2019-04-16-BRU/",
    "country": "BE",
    "instructors": "Malvika Sharan,Stijn Van Hoey,Christof De Bo",
    "venue": "ELIXIR-Belgium Brussels",
    "longitude": 4.394176,
    "slug": "2019-04-16-BRU",
    "tag_name": "SWC",
    "helpers": null,
    "host_name": "ELIXIR-UK",
    "latitude": 50.824343,
    "start_date": "2019-04-16"
  },
  {
    "end_date": "2019-05-10",
    "url": "https://ucsbcarpentry.github.io/2019-05-09-UCSB-SW-Carpentry/",
    "country": "US",
    "instructors": "Ryan Avery,Sharon Solis,Greg Janée,Ian Lessing,Yuan Wu,Jon Jablonski",
    "venue": "UCSB Library Software Carpentry Workshop: Python, Git, and Bash",
    "longitude": null,
    "slug": "2019-05-09-UCSB-SW-Carpentry",
    "tag_name": "SWC",
    "helpers": "Vania Wang",
    "host_name": "University of California Santa Barbara",
    "latitude": null,
    "start_date": "2019-05-09"
  },
  {
    "end_date": "2019-05-10",
    "url": "https://marwahaha.github.io/2019-05-09-gatech/",
    "country": "US",
    "instructors": "Kunal Marwaha,Wilson Lozano",
    "venue": "Georgia Tech",
    "longitude": -84.396286,
    "slug": "2019-05-09-gatech",
    "tag_name": "SWC",
    "helpers": null,
    "host_name": "Georgia Tech",
    "latitude": 33.77562,
    "start_date": "2019-05-09"
  },
  {
    "end_date": "2019-05-10",
    "url": "https://uomresearchit.github.io/2019-05-09-manchester/",
    "country": "GB",
    "instructors": "Gerard Capes,Ann Gledson,Peter Crowther",
    "venue": "University Of Manchester",
    "longitude": -2.233694,
    "slug": "2019-05-09-manchester",
    "tag_name": "SWC",
    "helpers": null,
    "host_name": "University of Manchester",
    "latitude": 53.466817,
    "start_date": "2019-05-09"
  },
  {
    "end_date": "2019-05-10",
    "url": "https://mun-swc-hub.github.io/2019-05-09-mun/",
    "country": "CA",
    "instructors": "Joany Marino,Ivo Agbor Arrey,Oliver Stueker,Emilie Geissinger",
    "venue": "Memorial University of Newfoundland",
    "longitude": -52.736303,
    "slug": "2019-05-09-mun",
    "tag_name": "SWC",
    "helpers": null,
    "host_name": "Memorial University",
    "latitude": 47.571175,
    "start_date": "2019-05-09"
  },
  {
    "end_date": "2019-05-30",
    "url": "https://otagocarpentries.github.io/2019-05-09-otago/",
    "country": "NZ",
    "instructors": "Murray Cadzow,Mik Black",
    "venue": "Department of Biochemistry, University of Otago",
    "longitude": 170.51267,
    "slug": "2019-05-09-otago",
    "tag_name": "DC",
    "helpers": "Matt Bixley",
    "host_name": "University of Otago",
    "latitude": -45.86442,
    "start_date": "2019-05-09"
  },
  {
    "end_date": "2019-05-10",
    "url": "https://zenobieg.github.io/2019-05-09-udel/",
    "country": "US",
    "instructors": "Zenobie Garrett",
    "venue": "University of Delaware",
    "longitude": -75.73466,
    "slug": "2019-05-09-udel",
    "tag_name": "SWC",
    "helpers": null,
    "host_name": "University of Delaware",
    "latitude": 39.678,
    "start_date": "2019-05-09"
  },
  {
    "end_date": "2019-05-10",
    "url": "https://swc-uiuc.github.io/2019-05-10-cip/",
    "country": "PE",
    "instructors": "Lindsay Clark",
    "venue": "International Potato Center (CIP)",
    "longitude": -76.9493301,
    "slug": "2019-05-10-cip",
    "tag_name": "SWC",
    "helpers": null,
    "host_name": "International Potato Center",
    "latitude": -12.0780946,
    "start_date": "2019-05-10"
  },
  {
    "end_date": "2019-05-11",
    "url": "https://nesclic.github.io/2019-05-10-tuftsUEP/",
    "country": "US",
    "instructors": "Allison Gofman,Kyle Monahan",
    "venue": "Tisch Library, Tufts University",
    "longitude": -71.11884,
    "slug": "2019-05-10-tuftsUEP",
    "tag_name": "SWC",
    "helpers": "Kristin Lee",
    "host_name": "Tufts University",
    "latitude": 42.406172,
    "start_date": "2019-05-10"
  },
  {
    "end_date": "2019-05-14",
    "url": "https://elixir-belgium.github.io/2019-05-13-Ghent/",
    "country": "BE",
    "instructors": "Mateusz Kuzak,Toby Hodges",
    "venue": "ELIXIR-BE",
    "longitude": 3.70654,
    "slug": "2019-05-13-Ghent",
    "tag_name": "DC",
    "helpers": "Christof De Bo",
    "host_name": "ELIXIR-UK",
    "latitude": 51.033718,
    "start_date": "2019-05-13"
  },
  {
    "end_date": "2019-05-14",
    "url": "https://alex-konovalov.github.io/2019-05-13-ttt-online-BST/",
    "country": "",
    "instructors": "Samar Elsheikh,Samar Elsheikh,Alexander Konovalov,Alexander Konovalov",
    "venue": "",
    "longitude": null,
    "slug": "2019-05-13-ttt-online-BST",
    "tag_name": "TTT,online",
    "helpers": null,
    "host_name": "Software Carpentry",
    "latitude": null,
    "start_date": "2019-05-13"
  },
  {
    "end_date": "2019-05-14",
    "url": "https://arinbasu.github.io/2019-05-13-ttt-wellington/",
    "country": "NZ",
    "instructors": "Jonah Duckles,Arindam Basu",
    "venue": "ESR Wellington",
    "longitude": 174.83896,
    "slug": "2019-05-13-ttt-wellington",
    "tag_name": "TTT",
    "helpers": null,
    "host_name": "Software Carpentry",
    "latitude": -41.14768,
    "start_date": "2019-05-13"
  },
  {
    "end_date": "2019-06-04",
    "url": "https://rbeagrie.github.io/2019-03-26-WIMM-Python/",
    "country": "GB",
    "instructors": "Robert Beagrie,Nicki GRAY",
    "venue": "MRC Weatherall Institute of Molecular Medicine",
    "longitude": -1.216999,
    "slug": "2019-03-26-WIMM-Python",
    "tag_name": "SWC",
    "helpers": null,
    "host_name": "University of Oxford",
    "latitude": 51.76337,
    "start_date": "2019-05-14"
  },
  {
    "end_date": "2019-05-16",
    "url": "https://oulib-swc.github.io/2019-05-15-ou-swc/",
    "country": "US",
    "instructors": "Claire Curry,Traci DuBose,Mark Laufersweiler,Amanda Schilling",
    "venue": "University of Oklahoma",
    "longitude": -97.445848,
    "slug": "2019-05-15-ou-swc",
    "tag_name": "SWC",
    "helpers": "Michael Malahy",
    "host_name": "University of Oklahoma",
    "latitude": 35.208275,
    "start_date": "2019-05-15"
  },
  {
    "end_date": "2019-05-15",
    "url": "https://alexetnunes.github.io/2019-05-15-surge-halifax/",
    "country": "CA",
    "instructors": "Alex Nunes",
    "venue": "SURGE Innovation",
    "longitude": -63.572392,
    "slug": "2019-05-15-surge-halifax",
    "tag_name": "DC",
    "helpers": "Jonathan Pye",
    "host_name": "Dalhousie University",
    "latitude": 44.645329,
    "start_date": "2019-05-15"
  },
  {
    "end_date": "2019-05-17",
    "url": "https://gwu-libraries.github.io/2019-05-16-gwu/",
    "country": "US",
    "instructors": "Daniel Kerchner,Megan Potterbusch,Laura Wrubel",
    "venue": "George Washington University",
    "longitude": -77.048386,
    "slug": "2019-05-16-gwu",
    "tag_name": "SWC",
    "helpers": null,
    "host_name": "George Washington University",
    "latitude": 38.899233,
    "start_date": "2019-05-16"
  },
  {
    "end_date": "2019-05-17",
    "url": "https://njhdunn.github.io/2019-05-16-umntc/",
    "country": "US",
    "instructors": "Nicholas Dunn,Cody Hennesy,Caitlin Bakker",
    "venue": "University of Minnesota",
    "longitude": -93.243129,
    "slug": "2019-05-16-umntc",
    "tag_name": "SWC",
    "helpers": "Caitlin Bakker,Nicholas Dunn,Cody Hennesy",
    "host_name": "University of Minnesota",
    "latitude": 44.973394,
    "start_date": "2019-05-16"
  },
  {
    "end_date": "2019-05-22",
    "url": "https://adivea.github.io/2019-05-21-AU-DC/",
    "country": "AU",
    "instructors": "Adela Sobotkova",
    "venue": "Aarhus University",
    "longitude": 151.112545,
    "slug": "2019-05-21-AU-DC",
    "tag_name": "DC",
    "helpers": null,
    "host_name": "Aarhus University",
    "latitude": -33.775015,
    "start_date": "2019-05-21"
  },
  {
    "end_date": "2019-05-23",
    "url": "https://ekirving.github.io/2019-05-22-oxford/",
    "country": "GB",
    "instructors": "Evan Irving-Pease,Antony Dimopoulos",
    "venue": "School of Archaeology, University of Oxford",
    "longitude": -1.2473,
    "slug": "2019-05-22-oxford",
    "tag_name": "SWC",
    "helpers": "Audrey Lin,Richard Allen",
    "host_name": "University of Oxford",
    "latitude": 51.75682,
    "start_date": "2019-05-22"
  },
  {
    "end_date": "2019-05-23",
    "url": "https://davebridges.github.io/2019-05-23-shapiro/",
    "country": "US",
    "instructors": "Dave Bridges,Michael Wolfe",
    "venue": "University of Michigan",
    "longitude": -83.737228,
    "slug": "2019-05-23-shapiro",
    "tag_name": "SWC",
    "helpers": null,
    "host_name": "University of Michigan",
    "latitude": 42.275961,
    "start_date": "2019-05-22"
  },
  {
    "end_date": "2019-05-24",
    "url": "https://damienirving.github.io/2019-05-23-bom/",
    "country": "AU",
    "instructors": "Damien Irving",
    "venue": "Australian Bureau of Meteorology",
    "longitude": 144.95108,
    "slug": "2019-05-23-bom",
    "tag_name": "DC",
    "helpers": null,
    "host_name": "Australian Bureau of Meteorology",
    "latitude": -37.81974,
    "start_date": "2019-05-23"
  },
  {
    "end_date": "2019-05-24",
    "url": "https://pitviper6.github.io/2019-05-23-chicagoMSTech/",
    "country": "US",
    "instructors": "Karen Gutzman,Avishek Kumar,Will Trimble",
    "venue": "Microsoft Technology Center",
    "longitude": -87.621521,
    "slug": "2019-05-23-chicagoMSTech",
    "tag_name": "LC",
    "helpers": "Juliane Schneider",
    "host_name": "Harvard University",
    "latitude": 41.885303,
    "start_date": "2019-05-23"
  },
  {
    "end_date": "2019-05-29",
    "url": "https://unt-carpentries.github.io/2019-05-28-unt-swc/",
    "country": "US",
    "instructors": "Jason Ellis,Kristy Phillips,Madhulika Bayyavarapu,Manuel (Gio) Gottardi",
    "venue": "University of North Texas",
    "longitude": -97.148954,
    "slug": "2019-05-28-unt-swc",
    "tag_name": "SWC",
    "helpers": null,
    "host_name": "University of North Texas",
    "latitude": 33.210068,
    "start_date": "2019-05-28"
  },
  {
    "end_date": "2019-06-01",
    "url": "https://gboushey.github.io/2019-05-29-UCSF-R/",
    "country": "US",
    "instructors": "Karla Lindquist,Angelo Pelonero,Geoffrey Boushey",
    "venue": "University of California, San Francisco",
    "longitude": 122.3944,
    "slug": "2019-05-29-UCSF-R",
    "tag_name": "SWC",
    "helpers": null,
    "host_name": "University of California San Francisco",
    "latitude": 37.7938,
    "start_date": "2019-05-29"
  },
  {
    "end_date": "2019-05-30",
    "url": "https://math2522.github.io/2019-05-29-elixir-nottingham/",
    "country": "GB",
    "instructors": "Wagner Barløse Mathias,Punam Amratia",
    "venue": "University of Nottingham",
    "longitude": -1.19467,
    "slug": "2019-05-29-elixir-nottingham",
    "tag_name": "SWC",
    "helpers": null,
    "host_name": "ELIXIR-UK",
    "latitude": 52.934502,
    "start_date": "2019-05-29"
  },
  {
    "end_date": "2019-05-31",
    "url": "https://marwahaha.github.io/2019-05-30-nas/",
    "country": "US",
    "instructors": "Jennifer Shelton,Kunal Marwaha",
    "venue": "National Academy of Sciences",
    "longitude": -90.06167,
    "slug": "2019-05-30-nas",
    "tag_name": "DC",
    "helpers": null,
    "host_name": "National Academy of Science",
    "latitude": 29.93766,
    "start_date": "2019-05-30"
  },
  {
    "end_date": "2019-05-31",
    "url": "https://starescomp.github.io/2019-05-30-standrews/",
    "country": "GB",
    "instructors": "Alexander Konovalov,Isla Barnard,Leighton Pritchard,Michael Torpey",
    "venue": "University of St Andrews",
    "longitude": -2.793957,
    "slug": "2019-05-30-standrews",
    "tag_name": "SWC",
    "helpers": null,
    "host_name": "University of St. Andrews",
    "latitude": 56.339308,
    "start_date": "2019-05-30"
  },
  {
    "end_date": "2019-05-31",
    "url": "https://denubis.github.io/2019-05-30-ttt-curtin/",
    "country": "AU",
    "instructors": "Brian Ballsun-Stanton,Masami Yamaguchi",
    "venue": "",
    "longitude": null,
    "slug": "2019-05-30-ttt-curtin",
    "tag_name": "TTT",
    "helpers": null,
    "host_name": "Software Carpentry",
    "latitude": null,
    "start_date": "2019-05-30"
  },
  {
    "end_date": "2019-05-31",
    "url": "https://nmcarpentries.github.io/2019-05-30-unm/",
    "country": "US",
    "instructors": "Jon Wheeler,Karl Benedict",
    "venue": "University of New Mexico",
    "longitude": -106.619838,
    "slug": "2019-05-30-unm",
    "tag_name": "SWC",
    "helpers": null,
    "host_name": "University of New Mexico",
    "latitude": 35.085714,
    "start_date": "2019-05-30"
  },
  {
    "end_date": "2019-05-31",
    "url": "https://angela-li.github.io/2019-05-31-chicago/",
    "country": "US",
    "instructors": "Angela Li",
    "venue": "Center for Spatial Data Science, University of Chicago",
    "longitude": -87.601003,
    "slug": "2019-05-31-chicago",
    "tag_name": "DC",
    "helpers": null,
    "host_name": "University of Chicago",
    "latitude": 41.790697,
    "start_date": "2019-05-31"
  },
  {
    "end_date": "2019-06-04",
    "url": "https://fpsom.github.io/2019-06-03-elixir-athens-eie",
    "country": "GR",
    "instructors": "Thor Wikfeldt,Fotis Psomopoulos",
    "venue": "National Hellenic Research Foundation",
    "longitude": 23.745407,
    "slug": "2019-06-03-elixir-athens-eie",
    "tag_name": "SWC",
    "helpers": null,
    "host_name": "ELIXIR-UK",
    "latitude": 37.973198,
    "start_date": "2019-06-03"
  },
  {
    "end_date": "2019-06-05",
    "url": "https://estherplomp.github.io/2019-06-04-Delft/",
    "country": "NL",
    "instructors": "Raúl Ortiz-Merino,Marcel van den Broek,Santosh Ilamparuthi,Esther Plomp",
    "venue": "Data Carpentry Workshop: Introduction to Reproducible Genomics @ TU Delft, EWI room: LB 01.010",
    "longitude": 4.357068,
    "slug": "2019-06-04-Delft",
    "tag_name": "DC",
    "helpers": "Nicolas Dintzner,Kees den Heijer",
    "host_name": "Delft Univeristy of Technology",
    "latitude": 52.011578,
    "start_date": "2019-06-04"
  },
  {
    "end_date": "2019-06-05",
    "url": "https://edcarp.github.io/2019-06-04-edinburgh/",
    "country": "GB",
    "instructors": "Iain Emsley",
    "venue": "Edinburgh University",
    "longitude": -1.260328,
    "slug": "2019-06-04-edinburgh",
    "tag_name": "DC",
    "helpers": null,
    "host_name": "University of Edinburgh",
    "latitude": 51.764476,
    "start_date": "2019-06-04"
  },
  {
    "end_date": "2019-06-05",
    "url": "https://epfllibrary.github.io/2019-06-04-epfl",
    "country": "CH",
    "instructors": "Jérôme Chaptinel,Raphaël Grolimund,Antoine Masson,Mathilde Panes",
    "venue": "Ecole Polytechnique Fédérale de Lausanne",
    "longitude": 6.568473,
    "slug": "2019-06-04-epfl",
    "tag_name": "SWC",
    "helpers": "Ludovic Bonivento,C_cile Hardebolle",
    "host_name": "École polytechnique fédérale de Lausanne",
    "latitude": 46.518445,
    "start_date": "2019-06-04"
  },
  {
    "end_date": "2019-06-07",
    "url": "https://mariakotouza.github.io/2019-06-06-elixir-bsc/",
    "country": "ES",
    "instructors": "Maria Kotouza,Joaquín Morís",
    "venue": "Elixir-CNIO",
    "longitude": -3.696091,
    "slug": "2019-06-06-elixir-bsc",
    "tag_name": "SWC",
    "helpers": null,
    "host_name": "ELIXIR-UK",
    "latitude": 40.476688,
    "start_date": "2019-06-06"
  },
  {
    "end_date": "2019-06-10",
    "url": "https://damienirving.github.io/2019-06-10-amos/",
    "country": "AU",
    "instructors": "Damien Irving",
    "venue": "AMOS 2019",
    "longitude": 130.84543,
    "slug": "2019-06-10-amos",
    "tag_name": "DC",
    "helpers": null,
    "host_name": "Australian Meteorological and Oceanographic Society",
    "latitude": -12.467735,
    "start_date": "2019-06-10"
  },
  {
    "end_date": "2019-06-12",
    "url": "https://bio-swc-bne.github.io/2019-06-11-GriffithUni-R/",
    "country": "AU",
    "instructors": "Amanda Miotto",
    "venue": "Griffith University",
    "longitude": 153.052425,
    "slug": "2019-06-11-Griffith",
    "tag_name": "SWC",
    "helpers": null,
    "host_name": "Griffith University",
    "latitude": -27.552941,
    "start_date": "2019-06-11"
  },
  {
    "end_date": "2019-06-25",
    "url": "https://fgacenga.github.io/2019-06-24-usq",
    "country": "AU",
    "instructors": "Francis Gacenga,Richard Young",
    "venue": "University of Southern Queensland",
    "longitude": 151.935113,
    "slug": "2019-06-24-usq",
    "tag_name": "SWC",
    "helpers": null,
    "host_name": "University of Southern Queensland",
    "latitude": -27.606578,
    "start_date": "2019-06-24"
  },
  {
    "end_date": "2019-07-17",
    "url": "https://fpsom.github.io/2019-07-15-ttt-ELIXIR-Athens/",
    "country": "GR",
    "instructors": "Allegra Via,Fotis Psomopoulos,Mateusz Kuzak",
    "venue": "Information Management Systems Institute (IMSI), Athena Research Center",
    "longitude": 23.8025,
    "slug": "2019-07-15-ttt-elixir_greece",
    "tag_name": "TTT",
    "helpers": null,
    "host_name": "Software Carpentry",
    "latitude": 38.03647,
    "start_date": "2019-07-15"
  },
  {
    "end_date": "2019-08-08",
    "url": "https://bio-swc-bne.github.io/2019-08-06-GriffithUni-Python/",
    "country": "AU",
    "instructors": "Amanda Miotto",
    "venue": "Griffith University",
    "longitude": 153.378868,
    "slug": "2019-08-06-Griffith",
    "tag_name": "SWC",
    "helpers": null,
    "host_name": "Griffith University",
    "latitude": -27.960345,
    "start_date": "2019-08-06"
  },
  {
    "end_date": "2019-08-23",
    "url": "https://ajdabrowski.github.io/2019-08-22-UT/",
    "country": "US",
    "instructors": "Jessica Trelogan,Anna Dabrowski,Emily Beagle",
    "venue": "University of Texas at Austin",
    "longitude": -97.738188,
    "slug": "2019-08-22-UT",
    "tag_name": "DC",
    "helpers": null,
    "host_name": "University of Texas (Austin)",
    "latitude": 30.282826,
    "start_date": "2019-08-22"
  },
  {
    "end_date": "2019-10-03",
    "url": "https://fgacenga.github.io/2019-10-02-usq/",
    "country": "AU",
    "instructors": "Francis Gacenga,Richard Young",
    "venue": "University of Southern Queensland",
    "longitude": 152.907227,
    "slug": "2019-10-02-usq",
    "tag_name": "SWC",
    "helpers": null,
    "host_name": "University of Southern Queensland",
    "latitude": -27.68401,
    "start_date": "2019-10-02"
  },
  {
    "end_date": "2019-10-17",
    "url": "https://bio-swc-bne.github.io/2019-10-16-GriffithUni-R/",
    "country": "AU",
    "instructors": "Amanda Miotto",
    "venue": "Griffith University",
    "longitude": 153.378868,
    "slug": "2019-10-16-Griffith",
    "tag_name": "SWC",
    "helpers": null,
    "host_name": "Griffith University",
    "latitude": -27.960345,
    "start_date": "2019-10-16"
  },
  {
    "end_date": "2019-11-22",
    "url": "https://bio-swc-bne.github.io/2019-11-20-GriffithUni-Python/",
    "country": "AU",
    "instructors": "Amanda Miotto",
    "venue": "Griffith University",
    "longitude": 153.052425,
    "slug": "2019-11-20-Griffith",
    "tag_name": "SWC",
    "helpers": null,
    "host_name": "Griffith University",
    "latitude": -27.552941,
    "start_date": "2019-11-20"
  },
  {
    "end_date": "2019-11-26",
    "url": "https://aschuerch.github.io/2019-11-25-Utrecht/",
    "country": "NL",
    "instructors": "Anita Schürch,Sergio Arredondo Alonso",
    "venue": "KNVM Division Microbial Typing",
    "longitude": null,
    "slug": "2019-11-25-Utrecht",
    "tag_name": "DC",
    "helpers": null,
    "host_name": "UMC Utrecht, The Netherlands, Medical Microbiology",
    "latitude": null,
    "start_date": "2019-11-25"
  }
]
