[
  {
    "end_date": "2019-04-19",
    "url": "https://broadwym.github.io/2019-03-15-vanderbilt/",
    "country": "US",
    "instructors": "Meredith Broadway",
    "venue": "Vanderbilt University",
    "longitude": -86.79943,
    "slug": "2019-03-15-vanderbilt",
    "tag_name": "SWC",
    "helpers": "Elisabeth Shook,Will French",
    "host_name": "Vanderbilt University",
    "latitude": 36.14743,
    "start_date": "2019-03-15"
  },
  {
    "end_date": "2019-04-05",
    "url": "http://davis68.github.io/2019-04-04-ttt-online_CST",
    "country": "",
    "instructors": "Neal Davis,Neal Davis,Eric Jankowski,Eric Jankowski",
    "venue": "",
    "longitude": null,
    "slug": "2018-04-04-ttt-online_CST",
    "tag_name": "TTT,online",
    "helpers": null,
    "host_name": "Software Carpentry",
    "latitude": null,
    "start_date": "2019-04-04"
  },
  {
    "end_date": "2019-04-09",
    "url": "https://mattgillucl.github.io/2019-04-08-UCL_software_carpentry/",
    "country": "GB",
    "instructors": "Vilma Agalioti Sgompou,Thomas Dowrick,Anastasis Georgoulas,Shikta Das",
    "venue": "UCL",
    "longitude": 0.02097,
    "slug": "2019-04-08-UCL_software_carpentry",
    "tag_name": "SWC",
    "helpers": null,
    "host_name": "University College London",
    "latitude": 51.52508,
    "start_date": "2019-04-08"
  },
  {
    "end_date": "2019-04-08",
    "url": "https://aschuerch.github.io/2019-04-08-Utrecht/",
    "country": "NL",
    "instructors": "Anita Schürch,Sergio Arredondo Alonso",
    "venue": "Utrecht University",
    "longitude": 5.169072,
    "slug": "2019-04-08-Utrecht",
    "tag_name": "DC",
    "helpers": null,
    "host_name": "UMC Utrecht, The Netherlands, Medical Microbiology",
    "latitude": 52.085393,
    "start_date": "2019-04-08"
  },
  {
    "end_date": "2019-04-09",
    "url": "https://fmichonneau.github.io/2019-04-08-ttt-UF/",
    "country": "US",
    "instructors": "François Michonneau,Amy Hodge",
    "venue": "University of Florida",
    "longitude": -82.34,
    "slug": "2019-04-08-ttt-ufl",
    "tag_name": "TTT",
    "helpers": null,
    "host_name": "Software Carpentry",
    "latitude": 29.64,
    "start_date": "2019-04-08"
  },
  {
    "end_date": "2019-04-09",
    "url": "https://mbrousil.github.io/2019-04-08-wsu/",
    "country": "US",
    "instructors": "Michael Meyer,Sarah Murphy,Nicholas Potter,Matt Brousil",
    "venue": "Washington State University",
    "longitude": -117.155013,
    "slug": "2019-04-08-wsu",
    "tag_name": "SWC",
    "helpers": "Alex Kappes",
    "host_name": "Washington State University",
    "latitude": 46.72944,
    "start_date": "2019-04-08"
  },
  {
    "end_date": "2019-04-10",
    "url": "https://zbmed.github.io/2019-04-09-Software-Carpentry-Cologne/",
    "country": "DE",
    "instructors": "Silvia Di Giorgio,Till Sauerwein,Konrad Förstner",
    "venue": "ZB MED",
    "longitude": 6.91646,
    "slug": "2019-04-09-Software-Carpentry-Cologne",
    "tag_name": "SWC",
    "helpers": "Christian Kurrat,Eva Seidlmayer",
    "host_name": "ZB Med Information Centre for Life Sciences",
    "latitude": 50.92465,
    "start_date": "2019-04-09"
  },
  {
    "end_date": "2019-04-11",
    "url": "https://otagocarpentries.github.io/2019-04-10-otago/",
    "country": "NZ",
    "instructors": "Alana Alexander,Greg Gimenez,Hugh Cross,Riku Takei,Murray Cadzow",
    "venue": "Science library - University of Otago",
    "longitude": 170.51131,
    "slug": "2019-04-10-Otago",
    "tag_name": "SWC",
    "helpers": "Matt Bixley",
    "host_name": "University of Otago",
    "latitude": -45.8639,
    "start_date": "2019-04-10"
  },
  {
    "end_date": "2019-04-11",
    "url": "https://ucsdlib.github.io/2019-04-10-UCSD",
    "country": "US",
    "instructors": "Reid Otsuji,Stephanie Labou,Richard McCosh",
    "venue": "UC San Diego Library",
    "longitude": -117.237224,
    "slug": "2019-04-10-UCSD",
    "tag_name": "SWC",
    "helpers": null,
    "host_name": "University of California San Diego",
    "latitude": 32.875527,
    "start_date": "2019-04-10"
  },
  {
    "end_date": "2019-04-11",
    "url": "https://tobyhodges.github.io/2019-04-10-ttt-online_CentralEurope/",
    "country": "",
    "instructors": "Toby Hodges,Toby Hodges,Martin Dreyer,Martin Dreyer",
    "venue": "",
    "longitude": null,
    "slug": "2019-04-10-ttt-online_CentralEurope",
    "tag_name": "TTT,online",
    "helpers": null,
    "host_name": "Software Carpentry",
    "latitude": null,
    "start_date": "2019-04-10"
  },
  {
    "end_date": "2019-04-12",
    "url": "https://sateeshperi.github.io/2019-04-11-gwu/",
    "country": "US",
    "instructors": "Sateesh Peri,Aniello Infante",
    "venue": "Gelman Library, Room 301/302",
    "longitude": -77.048386,
    "slug": "2019-04-11-gwu",
    "tag_name": "DC",
    "helpers": null,
    "host_name": "George Washington University",
    "latitude": 38.899235,
    "start_date": "2019-04-11"
  },
  {
    "end_date": "2019-04-12",
    "url": "https://nyu-dataservices.github.io/2019-04-11-nyu/",
    "country": "US",
    "instructors": "Alexandra Provo,Andrew Battista",
    "venue": "Bern Dibner Library, New York University",
    "longitude": -73.9878546,
    "slug": "2019-04-11-nyu",
    "tag_name": "DC",
    "helpers": "Rémi Rampin,Heiko Mueller",
    "host_name": "New York University",
    "latitude": 40.6946976,
    "start_date": "2019-04-11"
  },
  {
    "end_date": "2019-04-12",
    "url": "https://uf-carpentry.github.io/2019-04-11-ufepi-genomics/",
    "country": "US",
    "instructors": null,
    "venue": "UF Emerging Pathogens Institute",
    "longitude": -82.351971,
    "slug": "2019-04-11-ufepi-genomics",
    "tag_name": "DC",
    "helpers": "Geraldine Klarenberg",
    "host_name": "University of Florida",
    "latitude": 29.637414,
    "start_date": "2019-04-11"
  },
  {
    "end_date": "2019-04-12",
    "url": "https://angela-li.github.io/2019-04-12-chicago/",
    "country": "US",
    "instructors": "Angela Li",
    "venue": "University of Chicago",
    "longitude": -87.601003,
    "slug": "2019-04-12-chicago",
    "tag_name": "DC",
    "helpers": null,
    "host_name": "University of Chicago",
    "latitude": 41.790697,
    "start_date": "2019-04-12"
  },
  {
    "end_date": "2019-04-13",
    "url": "https://nesclic.github.io/2019-04-12-tufts/",
    "country": "US",
    "instructors": "Kristin Lee,Travis Lilleberg,Kyle Monahan,Lenny Paritsky",
    "venue": "Tufts University",
    "longitude": -71.11884,
    "slug": "2019-04-12-tufts",
    "tag_name": "SWC",
    "helpers": null,
    "host_name": "Tufts University",
    "latitude": 42.406172,
    "start_date": "2019-04-12"
  },
  {
    "end_date": "2019-04-17",
    "url": "https://bio-swc-bne.github.io/2019-04-15-GriffithUni-Python/",
    "country": "AU",
    "instructors": "Amanda Miotto",
    "venue": "Griffith University",
    "longitude": 153.052425,
    "slug": "2019-04-15-Griffith",
    "tag_name": "SWC",
    "helpers": null,
    "host_name": "Griffith University",
    "latitude": -27.552941,
    "start_date": "2019-04-15"
  },
  {
    "end_date": "2019-07-17",
    "url": "https://elixir-belgium.github.io/2019-04-16-BRU/",
    "country": "BE",
    "instructors": "Malvika Sharan,Stijn Van Hoey,Christof De Bo",
    "venue": "ELIXIR-Belgium Brussels",
    "longitude": 4.394176,
    "slug": "2019-04-16-BRU",
    "tag_name": "SWC",
    "helpers": null,
    "host_name": "ELIXIR-UK",
    "latitude": 50.824343,
    "start_date": "2019-04-16"
  },
  {
    "end_date": "2019-04-17",
    "url": "https://zpainter.github.io/2019-04-16-Stanford/",
    "country": "US",
    "instructors": "Kim Durante,Zac Painter,Mary-Ellen Petrich",
    "venue": "Stanford University Libraries",
    "longitude": -122.169716,
    "slug": "2019-04-16-Stanford",
    "tag_name": "SWC",
    "helpers": "Amy Hodge,Saulo de Oliveira,Satoshi Yokota",
    "host_name": "Stanford University",
    "latitude": 37.427475,
    "start_date": "2019-04-16"
  },
  {
    "end_date": "2019-04-17",
    "url": "https://sa2c.github.io/2019-04-16-swansea/",
    "country": "GB",
    "instructors": "Ed Bennett,Mark Dawson",
    "venue": "Swansea University",
    "longitude": -3.878739,
    "slug": "2019-04-16-swansea",
    "tag_name": "SWC",
    "helpers": null,
    "host_name": "Swansea University",
    "latitude": 51.619229,
    "start_date": "2019-04-16"
  },
  {
    "end_date": "2019-04-18",
    "url": "https://denubis.github.io/2019-04-17-MacquarieUniversity/",
    "country": "AU",
    "instructors": "Brian Ballsun-Stanton,Wilfred Gee",
    "venue": "Macquarie University",
    "longitude": 151.113281,
    "slug": "2019-04-17-MacquarieUniversity",
    "tag_name": "SWC",
    "helpers": "Peter Ha",
    "host_name": "Macquarie University",
    "latitude": -33.774804,
    "start_date": "2019-04-17"
  },
  {
    "end_date": "2019-04-18",
    "url": "https://traviscg.github.io/2019-04-17-semmelweis/",
    "country": "HU",
    "instructors": "Dmytro Fishman,Mark Robinson",
    "venue": "Semmelweis University Data Carpentry Workshop",
    "longitude": 19.06711,
    "slug": "2019-04-17-semmelweis",
    "tag_name": "DC",
    "helpers": "Endre Sebestyen,Tibor Nagy,Krisztina Rigó",
    "host_name": "Semmelweis University",
    "latitude": 47.4873,
    "start_date": "2019-04-17"
  },
  {
    "end_date": "2019-04-19",
    "url": "https://osu-carpentry.github.io/2019-04-18-okstate/",
    "country": "US",
    "instructors": "Kay BJornen,Ki Cole,Gautham Brahma Ponnaganti,Phillip Doehle",
    "venue": "Data Carpentry at OSU Center for Health Sciences (TULSA)",
    "longitude": -96.005624,
    "slug": "2019-04-18-okstate",
    "tag_name": "DC",
    "helpers": "Evan Linde",
    "host_name": "Oklahoma State University",
    "latitude": 36.137965,
    "start_date": "2019-04-18"
  },
  {
    "end_date": "2019-04-23",
    "url": "https://malvikasharan.github.io/2019-04-22-ttt-online/",
    "country": "",
    "instructors": "Malvika Sharan,Malvika Sharan,Tania Allard,Tania Allard",
    "venue": "",
    "longitude": null,
    "slug": "2019-04-22-ttt-online_WesternEurope",
    "tag_name": "TTT,online",
    "helpers": null,
    "host_name": "Software Carpentry",
    "latitude": null,
    "start_date": "2019-04-22"
  },
  {
    "end_date": "2019-04-30",
    "url": "https://uwescience.github.io/2019-04-29-ttt-hutchinson_uw",
    "country": "",
    "instructors": "Kate Hertweck,Ariel Rokem",
    "venue": "",
    "longitude": null,
    "slug": "2019-04-29-ttt-hutchinson_uw",
    "tag_name": "TTT",
    "helpers": null,
    "host_name": "Software Carpentry",
    "latitude": null,
    "start_date": "2019-04-29"
  },
  {
    "end_date": "2019-04-30",
    "url": "https://picardis.github.io/2019-04-29-uf-trec/",
    "country": "US",
    "instructors": "Simona Picardi,Zack Brym",
    "venue": "UF Tropical Research and Education Center",
    "longitude": -80.498971,
    "slug": "2019-04-29-uf-trec",
    "tag_name": "DC",
    "helpers": null,
    "host_name": "University of Florida",
    "latitude": 25.506636,
    "start_date": "2019-04-29"
  },
  {
    "end_date": "2019-05-10",
    "url": "https://uomresearchit.github.io/2019-05-09-manchester/",
    "country": "GB",
    "instructors": "Gerard Capes,Ann Gledson,Peter Crowther",
    "venue": "University Of Manchester",
    "longitude": -2.233694,
    "slug": "2019-05-09-manchester",
    "tag_name": "SWC",
    "helpers": null,
    "host_name": "University of Manchester",
    "latitude": 53.466817,
    "start_date": "2019-05-09"
  },
  {
    "end_date": "2019-05-14",
    "url": "https://elixir-belgium.github.io/2019-05-13-Ghent/",
    "country": "BE",
    "instructors": "Mateusz Kuzak,Toby Hodges",
    "venue": "ELIXIR-BE",
    "longitude": 3.70654,
    "slug": "2019-05-13-Ghent",
    "tag_name": "DC",
    "helpers": "Christof De Bo",
    "host_name": "ELIXIR-UK",
    "latitude": 51.033718,
    "start_date": "2019-05-13"
  },
  {
    "end_date": "2019-05-23",
    "url": "https://davebridges.github.io/2019-05-23-shapiro/",
    "country": "US",
    "instructors": "Dave Bridges,Michael Wolfe",
    "venue": "University of Michigan",
    "longitude": -83.737228,
    "slug": "2019-05-23-shapiro",
    "tag_name": "SWC",
    "helpers": null,
    "host_name": "University of Michigan",
    "latitude": 42.275961,
    "start_date": "2019-05-22"
  },
  {
    "end_date": "2019-06-01",
    "url": "https://gboushey.github.io/2019-05-29-UCSF-R/",
    "country": "US",
    "instructors": "Karla Lindquist,Angelo Pelonero,Geoffrey Boushey",
    "venue": "University of California, San Francisco",
    "longitude": 122.3944,
    "slug": "2019-05-29-UCSF-R",
    "tag_name": "SWC",
    "helpers": null,
    "host_name": "University of California San Francisco",
    "latitude": 37.7938,
    "start_date": "2019-05-29"
  },
  {
    "end_date": "2019-05-31",
    "url": "https://angela-li.github.io/2019-05-31-chicago/",
    "country": "US",
    "instructors": "Angela Li",
    "venue": "Center for Spatial Data Science, University of Chicago",
    "longitude": -87.601003,
    "slug": "2019-05-31-chicago",
    "tag_name": "DC",
    "helpers": null,
    "host_name": "University of Chicago",
    "latitude": 41.790697,
    "start_date": "2019-05-31"
  },
  {
    "end_date": "2019-06-04",
    "url": "https://fpsom.github.io/2019-06-03-elixir-athens-eie",
    "country": "GR",
    "instructors": "Thor Wikfeldt,Fotis Psomopoulos",
    "venue": "National Hellenic Research Foundation",
    "longitude": 23.745407,
    "slug": "2019-06-03-elixir-athens-eie",
    "tag_name": "SWC",
    "helpers": null,
    "host_name": "ELIXIR-UK",
    "latitude": 37.973198,
    "start_date": "2019-06-03"
  },
  {
    "end_date": "2019-06-10",
    "url": "https://damienirving.github.io/2019-06-10-amos/",
    "country": "AU",
    "instructors": "Damien Irving",
    "venue": "AMOS 2019",
    "longitude": 130.84543,
    "slug": "2019-06-10-amos",
    "tag_name": "DC",
    "helpers": null,
    "host_name": "Australian Meteorological and Oceanographic Society",
    "latitude": -12.467735,
    "start_date": "2019-06-10"
  },
  {
    "end_date": "2019-06-12",
    "url": "https://bio-swc-bne.github.io/2019-06-11-GriffithUni-R/",
    "country": "AU",
    "instructors": "Amanda Miotto",
    "venue": "Griffith University",
    "longitude": 153.052425,
    "slug": "2019-06-11-Griffith",
    "tag_name": "SWC",
    "helpers": null,
    "host_name": "Griffith University",
    "latitude": -27.552941,
    "start_date": "2019-06-11"
  },
  {
    "end_date": "2019-06-25",
    "url": "https://fgacenga.github.io/2019-06-24-usq",
    "country": "AU",
    "instructors": "Francis Gacenga,Richard Young",
    "venue": "University of Southern Queensland",
    "longitude": 151.935113,
    "slug": "2019-06-24-usq",
    "tag_name": "SWC",
    "helpers": null,
    "host_name": "University of Southern Queensland",
    "latitude": -27.606578,
    "start_date": "2019-06-24"
  },
  {
    "end_date": "2019-07-17",
    "url": "https://fpsom.github.io/2019-07-15-ttt-ELIXIR-Athens/",
    "country": "GR",
    "instructors": "Allegra Via,Fotis Psomopoulos,Mateusz Kuzak",
    "venue": "Information Management Systems Institute (IMSI), Athena Research Center",
    "longitude": 23.8025,
    "slug": "2019-07-15-ttt-elixir_greece",
    "tag_name": "TTT",
    "helpers": null,
    "host_name": "Software Carpentry",
    "latitude": 38.03647,
    "start_date": "2019-07-15"
  },
  {
    "end_date": "2019-08-08",
    "url": "https://bio-swc-bne.github.io/2019-08-06-GriffithUni-Python/",
    "country": "AU",
    "instructors": "Amanda Miotto",
    "venue": "Griffith University",
    "longitude": 153.378868,
    "slug": "2019-08-06-Griffith",
    "tag_name": "SWC",
    "helpers": null,
    "host_name": "Griffith University",
    "latitude": -27.960345,
    "start_date": "2019-08-06"
  },
  {
    "end_date": "2019-10-03",
    "url": "https://fgacenga.github.io/2019-10-02-usq/",
    "country": "AU",
    "instructors": "Francis Gacenga,Richard Young",
    "venue": "University of Southern Queensland",
    "longitude": 152.907227,
    "slug": "2019-10-02-usq",
    "tag_name": "SWC",
    "helpers": null,
    "host_name": "University of Southern Queensland",
    "latitude": -27.68401,
    "start_date": "2019-10-02"
  },
  {
    "end_date": "2019-10-17",
    "url": "https://bio-swc-bne.github.io/2019-10-16-GriffithUni-R/",
    "country": "AU",
    "instructors": "Amanda Miotto",
    "venue": "Griffith University",
    "longitude": 153.378868,
    "slug": "2019-10-16-Griffith",
    "tag_name": "SWC",
    "helpers": null,
    "host_name": "Griffith University",
    "latitude": -27.960345,
    "start_date": "2019-10-16"
  },
  {
    "end_date": "2019-11-22",
    "url": "https://bio-swc-bne.github.io/2019-11-20-GriffithUni-Python/",
    "country": "AU",
    "instructors": "Amanda Miotto",
    "venue": "Griffith University",
    "longitude": 153.052425,
    "slug": "2019-11-20-Griffith",
    "tag_name": "SWC",
    "helpers": null,
    "host_name": "Griffith University",
    "latitude": -27.552941,
    "start_date": "2019-11-20"
  }
]
