[
  {
    "end_date": "2019-07-17",
    "url": "https://elixir-belgium.github.io/2019-04-16-BRU/",
    "country": "BE",
    "instructors": "Malvika Sharan,Stijn Van Hoey,Christof De Bo",
    "venue": "ELIXIR-Belgium Brussels",
    "longitude": 4.394176,
    "slug": "2019-04-16-BRU",
    "tag_name": "SWC",
    "helpers": null,
    "host_name": "ELIXIR-UK",
    "latitude": 50.824343,
    "start_date": "2019-04-16"
  },
  {
    "end_date": "2019-05-01",
    "url": "https://edcarp.github.io/2019-04-23-Edinburgh-Dc-Genomics/",
    "country": "GB",
    "instructors": "Edward Wallace,Steve Thorn,Shaun Webb",
    "venue": "University of Edinburgh",
    "longitude": null,
    "slug": "2019-04-23-Edinburgh-Dc-Genomics",
    "tag_name": "DC",
    "helpers": null,
    "host_name": "University of Edinburgh",
    "latitude": null,
    "start_date": "2019-04-23"
  },
  {
    "end_date": "2019-05-02",
    "url": "https://kmichali.github.io/2019-05-01-Imperial/",
    "country": "GB",
    "instructors": "Santiago Lacalle,Krishnakumar Gopalakrishnan,Diego Alonso Álvarez,Tianjiao Sun",
    "venue": "Imperial College London",
    "longitude": -0.174877,
    "slug": "2019-05-01-Imperial",
    "tag_name": "SWC",
    "helpers": "Jan Andersen,Jazz Mack Smith,Jeremy Cohen,Katerina Michalickova",
    "host_name": "Imperial College London",
    "latitude": 51.4988,
    "start_date": "2019-05-01"
  },
  {
    "end_date": "2019-05-02",
    "url": "https://davemcg.github.io/2019-05-01-NIH-Library-Data-Carpentry-Genomics/",
    "country": "US",
    "instructors": "David McGaughey,Martin Skarzynski,Doug Joubert,Abhijit Dasgupta",
    "venue": "NIH Library Training Room",
    "longitude": -77.104737,
    "slug": "2019-05-01-NIH-Library-Data-Carpentry-Genomics",
    "tag_name": "DC",
    "helpers": null,
    "host_name": "National Institutes of Health",
    "latitude": 39.000789,
    "start_date": "2019-05-01"
  },
  {
    "end_date": "2019-05-02",
    "url": "https://erinbecker.github.io/2019-05-01-genentech",
    "country": "US",
    "instructors": "Thomas Ballinger,Erin Becker",
    "venue": "Genentech Software Carpentry Python workshop",
    "longitude": -122.381991,
    "slug": "2019-05-01-genentech",
    "tag_name": "SWC",
    "helpers": null,
    "host_name": "Genentech",
    "latitude": 37.652106,
    "start_date": "2019-05-01"
  },
  {
    "end_date": "2019-05-03",
    "url": "https://noracmitchell.github.io/2019-05-02-southwestern/",
    "country": "US",
    "instructors": "Nora Mitchell,David Welch",
    "venue": "Southwestern University",
    "longitude": null,
    "slug": "2019-05-02-southwestern",
    "tag_name": "DC",
    "helpers": null,
    "host_name": "Southwestern University, Center for Teaching, Learning, and Scholarship",
    "latitude": null,
    "start_date": "2019-05-02"
  },
  {
    "end_date": "2019-05-03",
    "url": "https://starescomp.github.io/2019-05-02-standrews/",
    "country": "GB",
    "instructors": "Alexander Konovalov,Isla Barnard,Patrick McCann,Michael Torpey",
    "venue": "University of St Andrews",
    "longitude": -2.809327,
    "slug": "2019-05-02-standrews",
    "tag_name": "SWC",
    "helpers": null,
    "host_name": "University of St. Andrews",
    "latitude": 56.341199,
    "start_date": "2019-05-02"
  },
  {
    "end_date": "2019-05-07",
    "url": "https://edcarp.github.io/2019-05-06-edinburgh/",
    "country": "GB",
    "instructors": "Justin Chun-ting Ho,Chris Hill,Andrzej Romaniuk",
    "venue": "The University of Edinburgh",
    "longitude": -3.184216,
    "slug": "2019-05-06-edinburgh",
    "tag_name": "DC",
    "helpers": "Lucia Michielin",
    "host_name": "University of Edinburgh",
    "latitude": 55.946934,
    "start_date": "2019-05-06"
  },
  {
    "end_date": "2019-05-07",
    "url": "https://kariljordan.github.io/2019-05-06-ttt-csvconf/",
    "country": "",
    "instructors": "Kari Jordan,Tracy Teal",
    "venue": "The Carpentries Instructor Training at csv,conf,v4 (Eliot Center)",
    "longitude": -122.68602,
    "slug": "2019-05-06-ttt-csvconf",
    "tag_name": "TTT",
    "helpers": null,
    "host_name": "Software Carpentry",
    "latitude": 45.51859,
    "start_date": "2019-05-06"
  },
  {
    "end_date": "2019-05-10",
    "url": "https://marwahaha.github.io/2019-05-09-gatech/",
    "country": "US",
    "instructors": "Kunal Marwaha,Wilson Lozano",
    "venue": "Georgia Tech",
    "longitude": -84.396286,
    "slug": "2019-05-09-gatech",
    "tag_name": "SWC",
    "helpers": null,
    "host_name": "Georgia Tech",
    "latitude": 33.77562,
    "start_date": "2019-05-09"
  },
  {
    "end_date": "2019-05-10",
    "url": "https://uomresearchit.github.io/2019-05-09-manchester/",
    "country": "GB",
    "instructors": "Gerard Capes,Ann Gledson,Peter Crowther",
    "venue": "University Of Manchester",
    "longitude": -2.233694,
    "slug": "2019-05-09-manchester",
    "tag_name": "SWC",
    "helpers": null,
    "host_name": "University of Manchester",
    "latitude": 53.466817,
    "start_date": "2019-05-09"
  },
  {
    "end_date": "2019-05-10",
    "url": "https://mun-swc-hub.github.io/2019-05-09-mun/",
    "country": "CA",
    "instructors": "Joany Marino,Ivo Agbor Arrey,Oliver Stueker,Emilie Geissinger",
    "venue": "Memorial University of Newfoundland",
    "longitude": -52.736303,
    "slug": "2019-05-09-mun",
    "tag_name": "SWC",
    "helpers": null,
    "host_name": "Memorial University",
    "latitude": 47.571175,
    "start_date": "2019-05-09"
  },
  {
    "end_date": "2019-05-30",
    "url": "https://otagocarpentries.github.io/2019-05-09-otago/",
    "country": "NZ",
    "instructors": "Murray Cadzow,Mik Black",
    "venue": "Department of Biochemistry, University of Otago",
    "longitude": 170.51267,
    "slug": "2019-05-09-otago",
    "tag_name": "DC",
    "helpers": "Matt Bixley",
    "host_name": "University of Otago",
    "latitude": -45.86442,
    "start_date": "2019-05-09"
  },
  {
    "end_date": "2019-05-10",
    "url": "https://swc-uiuc.github.io/2019-05-10-cip/",
    "country": "PE",
    "instructors": "Lindsay Clark",
    "venue": "International Potato Center (CIP)",
    "longitude": -76.9493301,
    "slug": "2019-05-10-cip",
    "tag_name": "SWC",
    "helpers": null,
    "host_name": "International Potato Center",
    "latitude": -12.0780946,
    "start_date": "2019-05-10"
  },
  {
    "end_date": "2019-05-11",
    "url": "https://nesclic.github.io/2019-05-10-tuftsUEP/",
    "country": "US",
    "instructors": "Allison Gofman,Kyle Monahan",
    "venue": "Tisch Library, Tufts University",
    "longitude": -71.11884,
    "slug": "2019-05-10-tuftsUEP",
    "tag_name": "SWC",
    "helpers": "Kristin Lee",
    "host_name": "Tufts University",
    "latitude": 42.406172,
    "start_date": "2019-05-10"
  },
  {
    "end_date": "2019-05-14",
    "url": "https://elixir-belgium.github.io/2019-05-13-Ghent/",
    "country": "BE",
    "instructors": "Mateusz Kuzak,Toby Hodges",
    "venue": "ELIXIR-BE",
    "longitude": 3.70654,
    "slug": "2019-05-13-Ghent",
    "tag_name": "DC",
    "helpers": "Christof De Bo",
    "host_name": "ELIXIR-UK",
    "latitude": 51.033718,
    "start_date": "2019-05-13"
  },
  {
    "end_date": "2019-05-14",
    "url": "https://arinbasu.github.io/2019-05-13-ttt-wellington/",
    "country": "NZ",
    "instructors": "Jonah Duckles,Arindam Basu",
    "venue": "ESR Wellington",
    "longitude": 174.83896,
    "slug": "2019-05-13-ttt-wellington",
    "tag_name": "TTT",
    "helpers": null,
    "host_name": "Software Carpentry",
    "latitude": -41.14768,
    "start_date": "2019-05-13"
  },
  {
    "end_date": "2019-06-04",
    "url": "https://rbeagrie.github.io/2019-03-26-WIMM-Python/",
    "country": "GB",
    "instructors": "Robert Beagrie,Nicki GRAY",
    "venue": "MRC Weatherall Institute of Molecular Medicine",
    "longitude": -1.216999,
    "slug": "2019-03-26-WIMM-Python",
    "tag_name": "SWC",
    "helpers": null,
    "host_name": "University of Oxford",
    "latitude": 51.76337,
    "start_date": "2019-05-14"
  },
  {
    "end_date": "2019-05-15",
    "url": "https://alexetnunes.github.io/2019-05-15-surge-halifax/",
    "country": "CA",
    "instructors": "Alex Nunes",
    "venue": "SURGE Innovation",
    "longitude": -63.572392,
    "slug": "2019-05-15-surge-halifax",
    "tag_name": "DC",
    "helpers": "Jonathan Pye",
    "host_name": "Dalhousie University",
    "latitude": 44.645329,
    "start_date": "2019-05-15"
  },
  {
    "end_date": "2019-05-17",
    "url": "https://gwu-libraries.github.io/2019-05-16-gwu/",
    "country": "US",
    "instructors": "Daniel Kerchner,Megan Potterbusch,Laura Wrubel",
    "venue": "George Washington University",
    "longitude": -77.048386,
    "slug": "2019-05-16-gwu",
    "tag_name": "SWC",
    "helpers": null,
    "host_name": "George Washington University",
    "latitude": 38.899233,
    "start_date": "2019-05-16"
  },
  {
    "end_date": "2019-05-17",
    "url": "https://njhdunn.github.io/2019-05-16-umntc/",
    "country": "US",
    "instructors": "Nicholas Dunn,Cody Hennesy,Caitlin Bakker",
    "venue": "University of Minnesota",
    "longitude": -93.243129,
    "slug": "2019-05-16-umntc",
    "tag_name": "SWC",
    "helpers": "Caitlin Bakker,Nicholas Dunn,Cody Hennesy",
    "host_name": "University of Minnesota",
    "latitude": 44.973394,
    "start_date": "2019-05-16"
  },
  {
    "end_date": "2019-05-22",
    "url": "https://adivea.github.io/2019-05-21-AU-DC/",
    "country": "AU",
    "instructors": "Adela Sobotkova",
    "venue": "Aarhus University",
    "longitude": 151.112545,
    "slug": "2019-05-21-AU-DC",
    "tag_name": "DC",
    "helpers": null,
    "host_name": "Aarhus University",
    "latitude": -33.775015,
    "start_date": "2019-05-21"
  },
  {
    "end_date": "2019-05-23",
    "url": "https://davebridges.github.io/2019-05-23-shapiro/",
    "country": "US",
    "instructors": "Dave Bridges,Michael Wolfe",
    "venue": "University of Michigan",
    "longitude": -83.737228,
    "slug": "2019-05-23-shapiro",
    "tag_name": "SWC",
    "helpers": null,
    "host_name": "University of Michigan",
    "latitude": 42.275961,
    "start_date": "2019-05-22"
  },
  {
    "end_date": "2019-05-24",
    "url": "https://damienirving.github.io/2019-05-23-bom/",
    "country": "AU",
    "instructors": "Damien Irving",
    "venue": "Australian Bureau of Meteorology",
    "longitude": 144.95108,
    "slug": "2019-05-23-bom",
    "tag_name": "DC",
    "helpers": null,
    "host_name": "Australian Bureau of Meteorology",
    "latitude": -37.81974,
    "start_date": "2019-05-23"
  },
  {
    "end_date": "2019-05-29",
    "url": "https://unt-carpentries.github.io/2019-05-28-unt-swc/",
    "country": "US",
    "instructors": "Jason Ellis,Kristy Phillips,Madhulika Bayyavarapu,Manuel (Gio) Gottardi",
    "venue": "University of North Texas",
    "longitude": -97.148954,
    "slug": "2019-05-28-unt-swc",
    "tag_name": "SWC",
    "helpers": null,
    "host_name": "University of North Texas",
    "latitude": 33.210068,
    "start_date": "2019-05-28"
  },
  {
    "end_date": "2019-06-01",
    "url": "https://gboushey.github.io/2019-05-29-UCSF-R/",
    "country": "US",
    "instructors": "Karla Lindquist,Angelo Pelonero,Geoffrey Boushey",
    "venue": "University of California, San Francisco",
    "longitude": 122.3944,
    "slug": "2019-05-29-UCSF-R",
    "tag_name": "SWC",
    "helpers": null,
    "host_name": "University of California San Francisco",
    "latitude": 37.7938,
    "start_date": "2019-05-29"
  },
  {
    "end_date": "2019-05-31",
    "url": "https://marwahaha.github.io/2019-05-30-nas/",
    "country": "US",
    "instructors": "Jennifer Shelton,Kunal Marwaha",
    "venue": "National Academy of Sciences",
    "longitude": -90.06167,
    "slug": "2019-05-30-nas",
    "tag_name": "DC",
    "helpers": null,
    "host_name": "National Academy of Science",
    "latitude": 29.93766,
    "start_date": "2019-05-30"
  },
  {
    "end_date": "2019-05-31",
    "url": "https://starescomp.github.io/2019-05-30-standrews/",
    "country": "GB",
    "instructors": "Alexander Konovalov,Isla Barnard,Leighton Pritchard,Michael Torpey",
    "venue": "University of St Andrews",
    "longitude": -2.793957,
    "slug": "2019-05-30-standrews",
    "tag_name": "SWC",
    "helpers": null,
    "host_name": "University of St. Andrews",
    "latitude": 56.339308,
    "start_date": "2019-05-30"
  },
  {
    "end_date": "2019-05-31",
    "url": "https://angela-li.github.io/2019-05-31-chicago/",
    "country": "US",
    "instructors": "Angela Li",
    "venue": "Center for Spatial Data Science, University of Chicago",
    "longitude": -87.601003,
    "slug": "2019-05-31-chicago",
    "tag_name": "DC",
    "helpers": null,
    "host_name": "University of Chicago",
    "latitude": 41.790697,
    "start_date": "2019-05-31"
  },
  {
    "end_date": "2019-06-04",
    "url": "https://fpsom.github.io/2019-06-03-elixir-athens-eie",
    "country": "GR",
    "instructors": "Thor Wikfeldt,Fotis Psomopoulos",
    "venue": "National Hellenic Research Foundation",
    "longitude": 23.745407,
    "slug": "2019-06-03-elixir-athens-eie",
    "tag_name": "SWC",
    "helpers": null,
    "host_name": "ELIXIR-UK",
    "latitude": 37.973198,
    "start_date": "2019-06-03"
  },
  {
    "end_date": "2019-06-05",
    "url": "https://edcarp.github.io/2019-06-04-edinburgh/",
    "country": "GB",
    "instructors": "Iain Emsley",
    "venue": "Edinburgh University",
    "longitude": -1.260328,
    "slug": "2019-06-04-edinburgh",
    "tag_name": "DC",
    "helpers": null,
    "host_name": "University of Edinburgh",
    "latitude": 51.764476,
    "start_date": "2019-06-04"
  },
  {
    "end_date": "2019-06-05",
    "url": "https://epfllibrary.github.io/2019-06-04-epfl",
    "country": "",
    "instructors": "Jérôme Chaptinel,Raphaël Grolimund,Antoine Masson,Mathilde Panes",
    "venue": "Ecole Polytechnique Fédérale de Lausanne",
    "longitude": 6.568473,
    "slug": "2019-06-04-epfl",
    "tag_name": "SWC",
    "helpers": "Ludovic Bonivento,C_cile Hardebolle",
    "host_name": "École polytechnique fédérale de Lausanne",
    "latitude": 46.518445,
    "start_date": "2019-06-04"
  },
  {
    "end_date": "2019-06-07",
    "url": "https://mariakotouza.github.io/2019-06-06-elixir-bsc/",
    "country": "ES",
    "instructors": "Maria Kotouza,Joaquín Morís",
    "venue": "Elixir-CNIO",
    "longitude": -3.696091,
    "slug": "2019-06-06-elixir-bsc",
    "tag_name": "SWC",
    "helpers": null,
    "host_name": "ELIXIR-UK",
    "latitude": 40.476688,
    "start_date": "2019-06-06"
  },
  {
    "end_date": "2019-06-10",
    "url": "https://damienirving.github.io/2019-06-10-amos/",
    "country": "AU",
    "instructors": "Damien Irving",
    "venue": "AMOS 2019",
    "longitude": 130.84543,
    "slug": "2019-06-10-amos",
    "tag_name": "DC",
    "helpers": null,
    "host_name": "Australian Meteorological and Oceanographic Society",
    "latitude": -12.467735,
    "start_date": "2019-06-10"
  },
  {
    "end_date": "2019-06-12",
    "url": "https://bio-swc-bne.github.io/2019-06-11-GriffithUni-R/",
    "country": "AU",
    "instructors": "Amanda Miotto",
    "venue": "Griffith University",
    "longitude": 153.052425,
    "slug": "2019-06-11-Griffith",
    "tag_name": "SWC",
    "helpers": null,
    "host_name": "Griffith University",
    "latitude": -27.552941,
    "start_date": "2019-06-11"
  },
  {
    "end_date": "2019-06-25",
    "url": "https://fgacenga.github.io/2019-06-24-usq",
    "country": "AU",
    "instructors": "Francis Gacenga,Richard Young",
    "venue": "University of Southern Queensland",
    "longitude": 151.935113,
    "slug": "2019-06-24-usq",
    "tag_name": "SWC",
    "helpers": null,
    "host_name": "University of Southern Queensland",
    "latitude": -27.606578,
    "start_date": "2019-06-24"
  },
  {
    "end_date": "2019-07-17",
    "url": "https://fpsom.github.io/2019-07-15-ttt-ELIXIR-Athens/",
    "country": "GR",
    "instructors": "Allegra Via,Fotis Psomopoulos,Mateusz Kuzak",
    "venue": "Information Management Systems Institute (IMSI), Athena Research Center",
    "longitude": 23.8025,
    "slug": "2019-07-15-ttt-elixir_greece",
    "tag_name": "TTT",
    "helpers": null,
    "host_name": "Software Carpentry",
    "latitude": 38.03647,
    "start_date": "2019-07-15"
  },
  {
    "end_date": "2019-08-08",
    "url": "https://bio-swc-bne.github.io/2019-08-06-GriffithUni-Python/",
    "country": "AU",
    "instructors": "Amanda Miotto",
    "venue": "Griffith University",
    "longitude": 153.378868,
    "slug": "2019-08-06-Griffith",
    "tag_name": "SWC",
    "helpers": null,
    "host_name": "Griffith University",
    "latitude": -27.960345,
    "start_date": "2019-08-06"
  },
  {
    "end_date": "2019-08-23",
    "url": "https://ajdabrowski.github.io/2019-08-22-UT/",
    "country": "US",
    "instructors": "Jessica Trelogan,Anna Dabrowski,Emily Beagle",
    "venue": "University of Texas at Austin",
    "longitude": -97.738188,
    "slug": "2019-08-22-UT",
    "tag_name": "DC",
    "helpers": null,
    "host_name": "University of Texas (Austin)",
    "latitude": 30.282826,
    "start_date": "2019-08-22"
  },
  {
    "end_date": "2019-10-03",
    "url": "https://fgacenga.github.io/2019-10-02-usq/",
    "country": "AU",
    "instructors": "Francis Gacenga,Richard Young",
    "venue": "University of Southern Queensland",
    "longitude": 152.907227,
    "slug": "2019-10-02-usq",
    "tag_name": "SWC",
    "helpers": null,
    "host_name": "University of Southern Queensland",
    "latitude": -27.68401,
    "start_date": "2019-10-02"
  },
  {
    "end_date": "2019-10-17",
    "url": "https://bio-swc-bne.github.io/2019-10-16-GriffithUni-R/",
    "country": "AU",
    "instructors": "Amanda Miotto",
    "venue": "Griffith University",
    "longitude": 153.378868,
    "slug": "2019-10-16-Griffith",
    "tag_name": "SWC",
    "helpers": null,
    "host_name": "Griffith University",
    "latitude": -27.960345,
    "start_date": "2019-10-16"
  },
  {
    "end_date": "2019-11-22",
    "url": "https://bio-swc-bne.github.io/2019-11-20-GriffithUni-Python/",
    "country": "AU",
    "instructors": "Amanda Miotto",
    "venue": "Griffith University",
    "longitude": 153.052425,
    "slug": "2019-11-20-Griffith",
    "tag_name": "SWC",
    "helpers": null,
    "host_name": "Griffith University",
    "latitude": -27.552941,
    "start_date": "2019-11-20"
  },
  {
    "end_date": "2019-11-26",
    "url": "https://aschuerch.github.io/2019-11-25-Utrecht/",
    "country": "NL",
    "instructors": "Anita Schürch,Sergio Arredondo Alonso",
    "venue": "KNVM Division Microbial Typing",
    "longitude": null,
    "slug": "2019-11-25-Utrecht",
    "tag_name": "DC",
    "helpers": null,
    "host_name": "UMC Utrecht, The Netherlands, Medical Microbiology",
    "latitude": null,
    "start_date": "2019-11-25"
  }
]
