[
  {
    "end_date": "2019-07-17",
    "url": "https://elixir-belgium.github.io/2019-04-16-BRU/",
    "country": "BE",
    "instructors": "Malvika Sharan,Stijn Van Hoey,Christof De Bo",
    "venue": "ELIXIR-Belgium Brussels",
    "longitude": 4.394176,
    "slug": "2019-04-16-BRU",
    "tag_name": "SWC",
    "helpers": null,
    "host_name": "ELIXIR-UK",
    "latitude": 50.824343,
    "start_date": "2019-04-16"
  },
  {
    "end_date": "2019-06-07",
    "url": "https://idi-bd2k.github.io/2019-06-03-puerto_rico-R/",
    "country": "PR",
    "instructors": "Humberto Ortiz-Zuazaga,Sofia Melendez-Cartagena",
    "venue": "University of Puerto Rico",
    "longitude": -66.0463582,
    "slug": "2019-06-03-puerto_rico-R",
    "tag_name": "SWC",
    "helpers": null,
    "host_name": "University of Puerto Rico",
    "latitude": 18.4044218,
    "start_date": "2019-06-03"
  },
  {
    "end_date": "2019-06-05",
    "url": "https://estherplomp.github.io/2019-06-04-Delft/",
    "country": "NL",
    "instructors": "Raúl Ortiz-Merino,Marcel van den Broek,Santosh Ilamparuthi,Esther Plomp",
    "venue": "Data Carpentry Workshop: Introduction to Reproducible Genomics @ TU Delft, EWI room: LB 01.010",
    "longitude": 4.357068,
    "slug": "2019-06-04-Delft",
    "tag_name": "DC",
    "helpers": "Nicolas Dintzner,Kees den Heijer",
    "host_name": "Delft Univeristy of Technology",
    "latitude": 52.011578,
    "start_date": "2019-06-04"
  },
  {
    "end_date": "2019-06-05",
    "url": "https://itcarroll.github.io/2019-06-04-carnegie/",
    "country": "US",
    "instructors": "Ian Carroll,Ryan Clement",
    "venue": "Carnegie Mellon University",
    "longitude": -79.9438,
    "slug": "2019-06-04-carnegie",
    "tag_name": "DC",
    "helpers": null,
    "host_name": "Carnegie Mellon University",
    "latitude": 40.4411,
    "start_date": "2019-06-04"
  },
  {
    "end_date": "2019-06-05",
    "url": "https://edcarp.github.io/2019-06-04-edinburgh/",
    "country": "GB",
    "instructors": "Iain Emsley,Stephen Worthington,Patrick McCann,Lucia Michielin",
    "venue": "Edinburgh University",
    "longitude": -1.260328,
    "slug": "2019-06-04-edinburgh",
    "tag_name": "DC",
    "helpers": "Adam Ferron,Justin Chun-ting Ho,Luis Reyes,Kevin Le",
    "host_name": "University of Edinburgh",
    "latitude": 51.764476,
    "start_date": "2019-06-04"
  },
  {
    "end_date": "2019-06-05",
    "url": "https://epfllibrary.github.io/2019-06-04-epfl",
    "country": "CH",
    "instructors": "Jérôme Chaptinel,Raphaël Grolimund,Antoine Masson,Mathilde Panes",
    "venue": "Ecole Polytechnique Fédérale de Lausanne",
    "longitude": 6.568473,
    "slug": "2019-06-04-epfl",
    "tag_name": "SWC",
    "helpers": "Ludovic Bonivento,C_cile Hardebolle",
    "host_name": "École polytechnique fédérale de Lausanne",
    "latitude": 46.518445,
    "start_date": "2019-06-04"
  },
  {
    "end_date": "2019-06-06",
    "url": "https://pages.nist.gov/2019-06-05-nist/",
    "country": "US",
    "instructors": "Andrew Reid,Trevor Keller,Juan Fung,Justin Senseney",
    "venue": "Building 215/Room C103",
    "longitude": -77.2185498,
    "slug": "2019-06-05-nist",
    "tag_name": "SWC",
    "helpers": "Daniel Wheeler,Jonathan Guyer",
    "host_name": "National Institute of Standards and Technology",
    "latitude": 39.1321944,
    "start_date": "2019-06-05"
  },
  {
    "end_date": "2019-06-07",
    "url": "https://mariakotouza.github.io/2019-06-06-elixir-bsc/",
    "country": "ES",
    "instructors": "Maria Kotouza,Joaquín Morís",
    "venue": "Elixir-CNIO",
    "longitude": -3.696091,
    "slug": "2019-06-06-elixir-bsc",
    "tag_name": "SWC",
    "helpers": null,
    "host_name": "ELIXIR-UK",
    "latitude": 40.476688,
    "start_date": "2019-06-06"
  },
  {
    "end_date": "2019-06-10",
    "url": "https://damienirving.github.io/2019-06-10-amos/",
    "country": "AU",
    "instructors": "Damien Irving",
    "venue": "AMOS 2019",
    "longitude": 130.84543,
    "slug": "2019-06-10-amos",
    "tag_name": "DC",
    "helpers": null,
    "host_name": "Australian Meteorological and Oceanographic Society",
    "latitude": -12.467735,
    "start_date": "2019-06-10"
  },
  {
    "end_date": "2019-06-11",
    "url": "https://symulation.github.io/2019-06-10-ttt-canada/",
    "country": "",
    "instructors": "Danielle Quinn,Danielle Quinn,John Simpson,John Simpson",
    "venue": "",
    "longitude": null,
    "slug": "2019-06-10-ttt-Canada",
    "tag_name": "TTT,online",
    "helpers": null,
    "host_name": "Software Carpentry",
    "latitude": null,
    "start_date": "2019-06-10"
  },
  {
    "end_date": "2019-06-11",
    "url": "https://hpcarcher.github.io/2019-06-10-york/",
    "country": "GB",
    "instructors": "Juan Herrera",
    "venue": "ARCHER-SSI Software Carpentry at The University of York",
    "longitude": -1.046603,
    "slug": "2019-06-10-york",
    "tag_name": "SWC",
    "helpers": null,
    "host_name": "University of York",
    "latitude": 53.9480435,
    "start_date": "2019-06-10"
  },
  {
    "end_date": "2019-06-12",
    "url": "https://bio-swc-bne.github.io/2019-06-11-GriffithUni-R/",
    "country": "AU",
    "instructors": "Amanda Miotto",
    "venue": "Griffith University",
    "longitude": 153.052425,
    "slug": "2019-06-11-Griffith",
    "tag_name": "SWC",
    "helpers": null,
    "host_name": "Griffith University",
    "latitude": -27.552941,
    "start_date": "2019-06-11"
  },
  {
    "end_date": "2019-06-12",
    "url": "https://nesclic.github.io/2019-06-11-Mount-Holyoke/",
    "country": "US",
    "instructors": "Thea Atwood,JAMES BURKE,Sarah Oelker",
    "venue": "Mount Holyoke College",
    "longitude": -72.575286,
    "slug": "2019-06-11-Mount-Holyoke",
    "tag_name": "SWC",
    "helpers": "Thea Atwood,JAMES BURKE,Ann Kardos,Sarah Oelker",
    "host_name": "Mount Holyoke College",
    "latitude": 42.257249,
    "start_date": "2019-06-11"
  },
  {
    "end_date": "2019-06-12",
    "url": "https://antonangelo.github.io/2019-06-11-las",
    "country": "SG",
    "instructors": "Anton Angelo,Janice Chan",
    "venue": "Library Association of Singapore",
    "longitude": 103.681667,
    "slug": "2019-06-11-las",
    "tag_name": "LC",
    "helpers": null,
    "host_name": "Library Association of Singapore",
    "latitude": 1.347545,
    "start_date": "2019-06-11"
  },
  {
    "end_date": "2019-06-12",
    "url": "https://angela-li.github.io/2019-06-11-mbdh/",
    "country": "US",
    "instructors": "Ahsan Ali Khoja,Angela Li",
    "venue": "Turtle Mountain Transportation Building",
    "longitude": -99.748667,
    "slug": "2019-06-11-mbdh",
    "tag_name": "DC",
    "helpers": null,
    "host_name": "University of North Dakota",
    "latitude": 48.843345,
    "start_date": "2019-06-11"
  },
  {
    "end_date": "2019-06-14",
    "url": "https://nesclic.github.io/2019-06-13-dartmouth/",
    "country": "US",
    "instructors": "JIANJUN HUA,James Adams,Lora Leligdon,Pamela Bagley,Stephen Gaughan",
    "venue": "Dartmouth College",
    "longitude": -72.289101,
    "slug": "2019-06-13-dartmouth",
    "tag_name": "SWC",
    "helpers": null,
    "host_name": "Dartmouth College",
    "latitude": 43.705787,
    "start_date": "2019-06-13"
  },
  {
    "end_date": "2019-06-21",
    "url": "https://erdc.github.io/2019-06-17-erdc-swc/",
    "country": "US",
    "instructors": "Drew Loney,Chris Kees",
    "venue": "US Army ERDC",
    "longitude": -90.877884,
    "slug": "2019-06-17-erdc-swc",
    "tag_name": "SWC",
    "helpers": null,
    "host_name": "US Army Engineer Research and Development Center (ERDC)",
    "latitude": 32.352646,
    "start_date": "2019-06-17"
  },
  {
    "end_date": "2019-06-19",
    "url": "https://davemcg.github.io/2019-06-18-Data-Carpentry-NEI/",
    "country": "US",
    "instructors": "David McGaughey",
    "venue": "NIH Building 10 FAES Room 4 - B1C205",
    "longitude": -77.104737,
    "slug": "2019-06-18-Data-Carpentry-NEI",
    "tag_name": "DC",
    "helpers": null,
    "host_name": "National Institutes of Health",
    "latitude": 39.000789,
    "start_date": "2019-06-18"
  },
  {
    "end_date": "2019-06-19",
    "url": "https://zpainter.github.io/2019-06-18-stanford/",
    "country": "US",
    "instructors": "Max Czapanskiy,Melissa Ko,Zac Painter,Satoshi Yokota",
    "venue": "Stanford University",
    "longitude": -122.165749,
    "slug": "2019-06-18-stanford",
    "tag_name": "SWC",
    "helpers": "Chao Jiang,Lorraine Ling",
    "host_name": "Stanford University",
    "latitude": 37.437519,
    "start_date": "2019-06-18"
  },
  {
    "end_date": "2019-06-19",
    "url": "https://edcarp.github.io/2019-06-19-edinburgh-git/",
    "country": "GB",
    "instructors": "Mike Jackson",
    "venue": "University of Ediniburgh",
    "longitude": -3.173319,
    "slug": "2019-06-19-edinburgh-git",
    "tag_name": "SWC",
    "helpers": "Edward Wallace",
    "host_name": "University of Edinburgh",
    "latitude": 55.921807,
    "start_date": "2019-06-19"
  },
  {
    "end_date": "2019-06-21",
    "url": "https://uci-libraries.github.io/2019-06-20-UCI/",
    "country": "US",
    "instructors": "Danielle Kane,Madelynn Dickerson,Mitchell Brown",
    "venue": "UC Irvine Libraries",
    "longitude": -117.8411,
    "slug": "2019-06-20-UCI",
    "tag_name": "SWC",
    "helpers": "Danielle Kane,Madelynn Dickerson,Mitchell Brown",
    "host_name": "University of California Irvine",
    "latitude": 33.647111,
    "start_date": "2019-06-20"
  },
  {
    "end_date": "2019-06-25",
    "url": "https://jt14den.github.io/2019-06-24-ttt-ucd_library/",
    "country": "",
    "instructors": "Tim Dennis,Juliane Schneider",
    "venue": "",
    "longitude": null,
    "slug": "2019-06-24-ttt-ucd_library",
    "tag_name": "TTT",
    "helpers": null,
    "host_name": "Software Carpentry",
    "latitude": null,
    "start_date": "2019-06-24"
  },
  {
    "end_date": "2019-06-25",
    "url": "https://fgacenga.github.io/2019-06-24-usq",
    "country": "AU",
    "instructors": "Francis Gacenga,Richard Young",
    "venue": "University of Southern Queensland",
    "longitude": 151.935113,
    "slug": "2019-06-24-usq",
    "tag_name": "SWC",
    "helpers": null,
    "host_name": "University of Southern Queensland",
    "latitude": -27.606578,
    "start_date": "2019-06-24"
  },
  {
    "end_date": "2019-06-26",
    "url": "https://jtande.github.io/2019-06-25-ColbyCollege/",
    "country": "US",
    "instructors": "Jacob Fosso Tande",
    "venue": "Colby College",
    "longitude": -69.63131,
    "slug": "2019-06-25-ColbyCollege",
    "tag_name": "SWC",
    "helpers": null,
    "host_name": "Colby College",
    "latitude": 44.552841,
    "start_date": "2019-06-25"
  },
  {
    "end_date": "2019-07-02",
    "url": "https://umswc.github.io/2019-07-1-umich/",
    "country": "US",
    "instructors": "Joshua Stough,Begum Topcuoglu,Kelly Sovacool",
    "venue": "University of Michigan",
    "longitude": -83.73823,
    "slug": "2019-07-01-umich",
    "tag_name": "SWC",
    "helpers": "Ariangela Kozik,Katherine McLean",
    "host_name": "University of Michigan",
    "latitude": 42.276616,
    "start_date": "2019-07-01"
  },
  {
    "end_date": "2019-07-05",
    "url": "https://elixir-iib-training.github.io/2019-07-05-naples-shell-git-python/",
    "country": "IT",
    "instructors": "Vincenza Colonna",
    "venue": "Biblioteca - National Research Council",
    "longitude": 14.22483,
    "slug": "2019-07-05-naples-shell-git-python",
    "tag_name": "SWC",
    "helpers": null,
    "host_name": "Consiglio Nazionale delle Ricerche",
    "latitude": 40.85459,
    "start_date": "2019-07-03"
  },
  {
    "end_date": "2019-07-19",
    "url": "https://fpsom.github.io/2019-07-15-ttt-ELIXIR-Athens/",
    "country": "GR",
    "instructors": "Allegra Via,Fotis Psomopoulos,Mateusz Kuzak",
    "venue": "Information Management Systems Institute (IMSI), Athena Research Center",
    "longitude": 23.8025,
    "slug": "2019-07-15-ttt-ELIXIR-Athens",
    "tag_name": "TTT",
    "helpers": null,
    "host_name": "Software Carpentry",
    "latitude": 38.03647,
    "start_date": "2019-07-15"
  },
  {
    "end_date": "2019-08-08",
    "url": "https://bio-swc-bne.github.io/2019-08-06-GriffithUni-Python/",
    "country": "AU",
    "instructors": "Amanda Miotto",
    "venue": "Griffith University",
    "longitude": 153.378868,
    "slug": "2019-08-06-Griffith",
    "tag_name": "SWC",
    "helpers": null,
    "host_name": "Griffith University",
    "latitude": -27.960345,
    "start_date": "2019-08-06"
  },
  {
    "end_date": "2019-08-23",
    "url": "https://smeehan12.github.io/2019-08-19-usatlas-computing-bootcamp",
    "country": "US",
    "instructors": "Daniel Guest,Henry Schreiber",
    "venue": "Lawrence Berkeley National Laboratory",
    "longitude": -122.25,
    "slug": "2019-08-19-usatlas-computing-bootcamp",
    "tag_name": "SWC",
    "helpers": null,
    "host_name": "Lawrence Berkeley National Laboratory",
    "latitude": 37.8759,
    "start_date": "2019-08-19"
  },
  {
    "end_date": "2019-08-23",
    "url": "https://ajdabrowski.github.io/2019-08-22-UT/",
    "country": "US",
    "instructors": "Jessica Trelogan,Anna Dabrowski,Emily Beagle",
    "venue": "University of Texas at Austin",
    "longitude": -97.738188,
    "slug": "2019-08-22-UT",
    "tag_name": "DC",
    "helpers": null,
    "host_name": "University of Texas (Austin)",
    "latitude": 30.282826,
    "start_date": "2019-08-22"
  },
  {
    "end_date": "2019-10-03",
    "url": "https://fgacenga.github.io/2019-10-02-usq/",
    "country": "AU",
    "instructors": "Francis Gacenga,Richard Young",
    "venue": "University of Southern Queensland",
    "longitude": 152.907227,
    "slug": "2019-10-02-usq",
    "tag_name": "SWC",
    "helpers": null,
    "host_name": "University of Southern Queensland",
    "latitude": -27.68401,
    "start_date": "2019-10-02"
  },
  {
    "end_date": "2019-10-17",
    "url": "https://bio-swc-bne.github.io/2019-10-16-GriffithUni-R/",
    "country": "AU",
    "instructors": "Amanda Miotto",
    "venue": "Griffith University",
    "longitude": 153.378868,
    "slug": "2019-10-16-Griffith",
    "tag_name": "SWC",
    "helpers": null,
    "host_name": "Griffith University",
    "latitude": -27.960345,
    "start_date": "2019-10-16"
  },
  {
    "end_date": "2019-11-22",
    "url": "https://bio-swc-bne.github.io/2019-11-20-GriffithUni-Python/",
    "country": "AU",
    "instructors": "Amanda Miotto",
    "venue": "Griffith University",
    "longitude": 153.052425,
    "slug": "2019-11-20-Griffith",
    "tag_name": "SWC",
    "helpers": null,
    "host_name": "Griffith University",
    "latitude": -27.552941,
    "start_date": "2019-11-20"
  },
  {
    "end_date": "2019-11-26",
    "url": "https://aschuerch.github.io/2019-11-25-Utrecht/",
    "country": "NL",
    "instructors": "Anita Schürch,Sergio Arredondo Alonso",
    "venue": "KNVM Division Microbial Typing",
    "longitude": null,
    "slug": "2019-11-25-Utrecht",
    "tag_name": "DC",
    "helpers": null,
    "host_name": "UMC Utrecht, The Netherlands, Medical Microbiology",
    "latitude": null,
    "start_date": "2019-11-25"
  }
]
