[
  {
    "instructors": "Joshua Dull,Ashley Champagne",
    "end_date": "2019-10-22",
    "url": "https://NESCLiC.github.io/2019-10-21-NEASIST-Brown",
    "country": "US",
    "curriculum": "lc-other",
    "venue": "Brown University Library",
    "longitude": -71.405109,
    "slug": "2019-10-21-NEASIST-Brown",
    "tag_name": "LC",
    "helpers": null,
    "host_name": "Yale University",
    "latitude": 41.825748,
    "start_date": "2019-10-21"
  },
  {
    "instructors": "David Yakobovitch,Jacob Koehler",
    "end_date": "2019-10-25",
    "url": "https://nydclc.github.io/2019-10-25-oneonta/",
    "country": "US",
    "curriculum": "lc-other",
    "venue": "SUNY, Oneonta",
    "longitude": 75.0636,
    "slug": "2019-10-25-oneonta",
    "tag_name": "LC",
    "helpers": null,
    "host_name": "New York Data Carpentries Library Consortium (NYDCLC)",
    "latitude": 42.471,
    "start_date": "2019-10-25"
  },
  {
    "instructors": "Vratika Chaudhary,Sarah Pugachev",
    "end_date": "2019-11-01",
    "url": "https://nydclc.github.io/2019-11-01-rochester/",
    "country": "US",
    "curriculum": "lc",
    "venue": "Rochester, NY",
    "longitude": -77.618451,
    "slug": "2019-11-01-rochester",
    "tag_name": "LC",
    "helpers": null,
    "host_name": "New York Data Carpentries Library Consortium (NYDCLC)",
    "latitude": 43.068325,
    "start_date": "2019-11-01"
  },
  {
    "instructors": "Martin Czygan,Ronny Gey",
    "end_date": "2019-11-05",
    "url": "https://ubleipzig.github.io/2019-11-04-leipzig/",
    "country": "DE",
    "curriculum": "lc-other",
    "venue": "Universitätsbibliothek Leipzig",
    "longitude": 12.38978,
    "slug": "2019-11-04-leipzig",
    "tag_name": "LC",
    "helpers": null,
    "host_name": "Leipzig University Library",
    "latitude": 51.33155,
    "start_date": "2019-11-04"
  },
  {
    "instructors": "Evamaria Krause,Christian Krippes,Till Sauerwein",
    "end_date": "2019-11-19",
    "url": "https://evamarik.github.io/2019-11-frankfurt/",
    "country": "DE",
    "curriculum": "lc",
    "venue": "Library Carpentry, Frankfurt a.M.",
    "longitude": 8.66495,
    "slug": "2019-11-18-frankfurt",
    "tag_name": "LC",
    "helpers": null,
    "host_name": "Universität Augsburg University",
    "latitude": 50.12828,
    "start_date": "2019-11-18"
  }
]
