[
  {
    "instructors": "Kaitlin Newson",
    "end_date": "2020-04-30",
    "url": "https://brockdsl.github.io/2020-04-29-Ryerson/",
    "country": "CA",
    "curriculum": "lc",
    "venue": "Ryerson University",
    "longitude": -79.38048,
    "slug": "2020-04-29-Ryerson",
    "tag_name": "LC",
    "helpers": "John Fink",
    "host_name": "Ryerson University",
    "latitude": 43.65778,
    "start_date": "2020-04-29"
  },
  {
    "instructors": "David Durden,Sarah Over,Amy Trost,Candace Norton",
    "end_date": "2020-05-01",
    "url": "https://amytrost.github.io/2020-04-30-rockville/",
    "country": "US",
    "curriculum": "lc",
    "venue": "Universities at Shady Grove",
    "longitude": -77.20171,
    "slug": "2020-04-30-rockville",
    "tag_name": "LC",
    "helpers": null,
    "host_name": "University of Maryland",
    "latitude": 39.09373,
    "start_date": "2020-04-30"
  },
  {
    "instructors": null,
    "end_date": "2020-05-20",
    "url": "https://unt-carpentries.github.io/2020-05-19-unt-swc/",
    "country": "US",
    "curriculum": "lc",
    "venue": "University of North Texas",
    "longitude": -97.148954,
    "slug": "2020-05-19-unt-swc",
    "tag_name": "LC",
    "helpers": null,
    "host_name": "University of North Texas",
    "latitude": 33.210068,
    "start_date": "2020-05-19"
  },
  {
    "instructors": "Kristina Hettne,Matthijs de Zwaan,Alice Doek",
    "end_date": "2020-06-09",
    "url": "https://mtthsdzwn.github.io/2020-06-08-leiden/",
    "country": "NL",
    "curriculum": "mix-and-match",
    "venue": "Universitaire bibliotheken Leiden",
    "longitude": 4.48145,
    "slug": "2020-06-08-leiden",
    "tag_name": "LC",
    "helpers": "Henriette Reerink",
    "host_name": "Vrije Universiteit",
    "latitude": 52.15731,
    "start_date": "2020-06-08"
  },
  {
    "instructors": "Alexandra Provo",
    "end_date": "2020-07-10",
    "url": "https://nyu-dataservices.github.io/2020-07-09-nyu/",
    "country": "US",
    "curriculum": "lc",
    "venue": "New York University Bobst Library",
    "longitude": -73.999364,
    "slug": "2020-07-09-nyu",
    "tag_name": "LC",
    "helpers": null,
    "host_name": "New York University",
    "latitude": 40.7294556,
    "start_date": "2020-07-09"
  }
]
