[
  {
    "end_date": "2019-04-19",
    "url": "https://broadwym.github.io/2019-03-15-vanderbilt/",
    "country": "US",
    "instructors": "Meredith Broadway",
    "venue": "Vanderbilt University",
    "longitude": -86.79943,
    "slug": "2019-03-15-vanderbilt",
    "tag_name": "SWC",
    "helpers": "Elisabeth Shook",
    "host_name": "Vanderbilt University",
    "latitude": 36.14743,
    "start_date": "2019-03-15"
  },
  {
    "end_date": "2019-03-27",
    "url": "https://uci-libraries.github.io/2019-03-26-UCI/",
    "country": "US",
    "instructors": "Danielle Kane,Madelynn Dickerson,Mitchell Brown",
    "venue": "UC Irvine Libraries",
    "longitude": -117.8411,
    "slug": "2019-03-26-UCI",
    "tag_name": "SWC",
    "helpers": null,
    "host_name": "University of California Irvine",
    "latitude": 33.647111,
    "start_date": "2019-03-26"
  },
  {
    "end_date": "2019-03-28",
    "url": "https://purdueswc.github.io/2019-03-27-purdue/",
    "country": "US",
    "instructors": "Gladys Andino,Dan Dietz,Lev Gorenstein,Geoffrey Lentner Lentner,Amiya Maji,Xiao Zhu",
    "venue": "Purdue University",
    "longitude": -86.913681,
    "slug": "2019-03-27-purdue",
    "tag_name": "SWC",
    "helpers": null,
    "host_name": "Purdue University",
    "latitude": 40.425018,
    "start_date": "2019-03-27"
  },
  {
    "end_date": "2019-03-28",
    "url": "https://katebar.github.io/2019-03-27-ucmerced/",
    "country": "US",
    "instructors": "Kate Barron,Avishek Kumar",
    "venue": "UC-Merced",
    "longitude": -120.420082,
    "slug": "2019-03-27-ucmerced",
    "tag_name": "SWC",
    "helpers": null,
    "host_name": "University of California Merced",
    "latitude": 37.367352,
    "start_date": "2019-03-27"
  },
  {
    "end_date": "2019-03-29",
    "url": "https://timothylwarren.github.io/2019-02-22-claremont/",
    "country": "US",
    "instructors": "Jacob Fosso Tande,Timothy Warren",
    "venue": "Claremont McKenna College",
    "longitude": -117.7106,
    "slug": "2019-02-22-claremont",
    "tag_name": "SWC",
    "helpers": null,
    "host_name": "Claremont Colleges",
    "latitude": 34.1024,
    "start_date": "2019-03-28"
  },
  {
    "end_date": "2019-03-29",
    "url": "http://vwkoppejan.github.io/2019-03-28-Delft",
    "country": "NL",
    "instructors": "Victor Koppejan,Ruud Steltenpool",
    "venue": "March 2019 SWC Workshop @TU Delft",
    "longitude": 4.37564,
    "slug": "2019-03-28-Delft",
    "tag_name": "SWC",
    "helpers": "Raúl Ortiz-Merino,Kees den Heijer",
    "host_name": "Delft Univeristy of Technology",
    "latitude": 51.998153,
    "start_date": "2019-03-28"
  },
  {
    "end_date": "2019-03-29",
    "url": "https://edcarp.github.io/2019-03-28-heriotwatt/",
    "country": "",
    "instructors": "Martino Sorbaro Sindaci,Ruairidh Macleod,Mario Antonioletti",
    "venue": "Heriot Watt University",
    "longitude": -3.26227,
    "slug": "2019-03-28-heriotwatt",
    "tag_name": "SWC",
    "helpers": null,
    "host_name": "Heriot Watt University",
    "latitude": 55.92261,
    "start_date": "2019-03-28"
  },
  {
    "end_date": "2019-03-31",
    "url": "https://daniellequinn.github.io/2019-03-30-WISE1/",
    "country": "CA",
    "instructors": "Oihane Cereceda",
    "venue": "Memorial University Women in Science and Engineering Graduate Student Society  (Technical Stream)",
    "longitude": -52.73703,
    "slug": "2019-03-30-WISE1",
    "tag_name": "SWC",
    "helpers": null,
    "host_name": "Memorial University",
    "latitude": 47.573853,
    "start_date": "2019-03-30"
  },
  {
    "end_date": "2019-04-03",
    "url": "https://dgrell.github.io/2019-04-01-ELIXIR-NORWAY_BERGEN/",
    "country": "NO",
    "instructors": "Joaquín Morís,David Grellscheid",
    "venue": "ELIXIR - University of Bergen",
    "longitude": 5.333,
    "slug": "2019-04-01-ELIXIR-NORWAY_BERGEN",
    "tag_name": "SWC",
    "helpers": null,
    "host_name": "ELIXIR-UK",
    "latitude": 60.381,
    "start_date": "2019-04-01"
  },
  {
    "end_date": "2019-04-04",
    "url": "https://gwu-libraries.github.io/2019-04-03-carpentry/",
    "country": "US",
    "instructors": "Jason Hurlburt,Daniel Kerchner,Laura Wrubel",
    "venue": "George Washington University",
    "longitude": -77.048386,
    "slug": "2019-04-03-carpentry",
    "tag_name": "SWC",
    "helpers": "Marco Suarez",
    "host_name": "George Washington University",
    "latitude": 38.899233,
    "start_date": "2019-04-03"
  },
  {
    "end_date": "2019-04-09",
    "url": "https://mattgillucl.github.io/2019-04-08-UCL_software_carpentry/",
    "country": "GB",
    "instructors": "Vilma Agalioti Sgompou,Thomas Dowrick,Anastasis Georgoulas,Shikta Das",
    "venue": "UCL",
    "longitude": 0.02097,
    "slug": "2019-04-08-UCL_software_carpentry",
    "tag_name": "SWC",
    "helpers": null,
    "host_name": "University College London",
    "latitude": 51.52508,
    "start_date": "2019-04-08"
  },
  {
    "end_date": "2019-04-09",
    "url": "https://mbrousil.github.io/2019-04-08-wsu/",
    "country": "US",
    "instructors": "Michael Meyer,Sarah Murphy,Nicholas Potter,Matt Brousil",
    "venue": "Washington State University",
    "longitude": -117.155013,
    "slug": "2019-04-08-wsu",
    "tag_name": "SWC",
    "helpers": "Alex Kappes",
    "host_name": "Washington State University",
    "latitude": 46.72944,
    "start_date": "2019-04-08"
  },
  {
    "end_date": "2019-04-11",
    "url": "https://otagocarpentries.github.io/2019-04-10-otago/",
    "country": "NZ",
    "instructors": "Alana Alexander,Greg Gimenez,Hugh Cross,Riku Takei,Murray Cadzow",
    "venue": "Science library - University of Otago",
    "longitude": 170.51131,
    "slug": "2019-04-10-Otago",
    "tag_name": "SWC",
    "helpers": "Matt Bixley",
    "host_name": "University of Otago",
    "latitude": -45.8639,
    "start_date": "2019-04-10"
  },
  {
    "end_date": "2019-04-11",
    "url": "https://ucsdlib.github.io/2019-04-10-UCSD",
    "country": "US",
    "instructors": "Reid Otsuji,Stephanie Labou,Richard McCosh",
    "venue": "UC San Diego Library",
    "longitude": -117.237224,
    "slug": "2019-04-10-UCSD",
    "tag_name": "SWC",
    "helpers": null,
    "host_name": "University of California San Diego",
    "latitude": 32.875527,
    "start_date": "2019-04-10"
  },
  {
    "end_date": "2019-04-13",
    "url": "https://nesclic.github.io/2019-04-12-tufts/",
    "country": "US",
    "instructors": "Kristin Lee,Travis Lilleberg,Kyle Monahan,Lenny Paritsky",
    "venue": "Tufts University",
    "longitude": -71.11884,
    "slug": "2019-04-12-tufts",
    "tag_name": "SWC",
    "helpers": null,
    "host_name": "Tufts University",
    "latitude": 42.406172,
    "start_date": "2019-04-12"
  },
  {
    "end_date": "2019-04-17",
    "url": "https://bio-swc-bne.github.io/2019-04-15-GriffithUni-Python/",
    "country": "AU",
    "instructors": "Amanda Miotto",
    "venue": "Griffith University",
    "longitude": 153.052425,
    "slug": "2019-04-15-Griffith",
    "tag_name": "SWC",
    "helpers": null,
    "host_name": "Griffith University",
    "latitude": -27.552941,
    "start_date": "2019-04-15"
  },
  {
    "end_date": "2019-07-17",
    "url": "https://elixir-belgium.github.io/2019-04-16-BRU/",
    "country": "BE",
    "instructors": "Malvika Sharan,Stijn Van Hoey,Christof De Bo",
    "venue": "ELIXIR-Belgium Brussels",
    "longitude": 4.394176,
    "slug": "2019-04-16-BRU",
    "tag_name": "SWC",
    "helpers": null,
    "host_name": "ELIXIR-UK",
    "latitude": 50.824343,
    "start_date": "2019-04-16"
  },
  {
    "end_date": "2019-04-17",
    "url": "https://zpainter.github.io/2019-04-16-Stanford/",
    "country": "US",
    "instructors": "Kim Durante,Zac Painter,Mary-Ellen Petrich",
    "venue": "Stanford University Libraries",
    "longitude": -122.169716,
    "slug": "2019-04-16-Stanford",
    "tag_name": "SWC",
    "helpers": "Amy Hodge,Saulo de Oliveira,Satoshi Yokota",
    "host_name": "Stanford University",
    "latitude": 37.427475,
    "start_date": "2019-04-16"
  },
  {
    "end_date": "2019-04-17",
    "url": "https://sa2c.github.io/2019-04-16-swansea/",
    "country": "GB",
    "instructors": "Ed Bennett,Mark Dawson",
    "venue": "Swansea University",
    "longitude": -3.878739,
    "slug": "2019-04-16-swansea",
    "tag_name": "SWC",
    "helpers": null,
    "host_name": "Swansea University",
    "latitude": 51.619229,
    "start_date": "2019-04-16"
  },
  {
    "end_date": "2019-04-18",
    "url": "https://denubis.github.io/2019-04-17-MacquarieUniversity/",
    "country": "AU",
    "instructors": "Brian Ballsun-Stanton,Wilfred Gee",
    "venue": "Macquarie University",
    "longitude": 151.113281,
    "slug": "2019-04-17-MacquarieUniversity",
    "tag_name": "SWC",
    "helpers": "Peter Ha",
    "host_name": "Macquarie University",
    "latitude": -33.774804,
    "start_date": "2019-04-17"
  },
  {
    "end_date": "2019-05-10",
    "url": "https://uomresearchit.github.io/2019-05-09-manchester/",
    "country": "GB",
    "instructors": "Gerard Capes,Ann Gledson,Peter Crowther",
    "venue": "University Of Manchester",
    "longitude": -2.233694,
    "slug": "2019-05-09-manchester",
    "tag_name": "SWC",
    "helpers": null,
    "host_name": "University of Manchester",
    "latitude": 53.466817,
    "start_date": "2019-05-09"
  },
  {
    "end_date": "2019-06-01",
    "url": "https://gboushey.github.io/2019-05-29-UCSF-R/",
    "country": "US",
    "instructors": "Karla Lindquist,Angelo Pelonero,Geoffrey Boushey",
    "venue": "University of California, San Francisco",
    "longitude": 122.3944,
    "slug": "2019-05-29-UCSF-R",
    "tag_name": "SWC",
    "helpers": null,
    "host_name": "University of California San Francisco",
    "latitude": 37.7938,
    "start_date": "2019-05-29"
  },
  {
    "end_date": "2019-06-04",
    "url": "https://fpsom.github.io/2019-06-03-elixir-athens-eie",
    "country": "GR",
    "instructors": "Thor Wikfeldt,Fotis Psomopoulos",
    "venue": "National Hellenic Research Foundation",
    "longitude": 23.745407,
    "slug": "2019-06-03-elixir-athens-eie",
    "tag_name": "SWC",
    "helpers": null,
    "host_name": "ELIXIR-UK",
    "latitude": 37.973198,
    "start_date": "2019-06-03"
  },
  {
    "end_date": "2019-06-12",
    "url": "https://bio-swc-bne.github.io/2019-06-11-GriffithUni-R/",
    "country": "AU",
    "instructors": "Amanda Miotto",
    "venue": "Griffith University",
    "longitude": 153.052425,
    "slug": "2019-06-11-Griffith",
    "tag_name": "SWC",
    "helpers": null,
    "host_name": "Griffith University",
    "latitude": -27.552941,
    "start_date": "2019-06-11"
  },
  {
    "end_date": "2019-06-25",
    "url": "https://fgacenga.github.io/2019-06-24-usq",
    "country": "AU",
    "instructors": "Francis Gacenga,Richard Young",
    "venue": "University of Southern Queensland",
    "longitude": 151.935113,
    "slug": "2019-06-24-usq",
    "tag_name": "SWC",
    "helpers": null,
    "host_name": "University of Southern Queensland",
    "latitude": -27.606578,
    "start_date": "2019-06-24"
  },
  {
    "end_date": "2019-08-08",
    "url": "https://bio-swc-bne.github.io/2019-08-06-GriffithUni-Python/",
    "country": "AU",
    "instructors": "Amanda Miotto",
    "venue": "Griffith University",
    "longitude": 153.378868,
    "slug": "2019-08-06-Griffith",
    "tag_name": "SWC",
    "helpers": null,
    "host_name": "Griffith University",
    "latitude": -27.960345,
    "start_date": "2019-08-06"
  },
  {
    "end_date": "2019-10-03",
    "url": "https://fgacenga.github.io/2019-10-02-usq/",
    "country": "AU",
    "instructors": "Francis Gacenga,Richard Young",
    "venue": "University of Southern Queensland",
    "longitude": 152.907227,
    "slug": "2019-10-02-usq",
    "tag_name": "SWC",
    "helpers": null,
    "host_name": "University of Southern Queensland",
    "latitude": -27.68401,
    "start_date": "2019-10-02"
  },
  {
    "end_date": "2019-10-17",
    "url": "https://bio-swc-bne.github.io/2019-10-16-GriffithUni-R/",
    "country": "AU",
    "instructors": "Amanda Miotto",
    "venue": "Griffith University",
    "longitude": 153.378868,
    "slug": "2019-10-16-Griffith",
    "tag_name": "SWC",
    "helpers": null,
    "host_name": "Griffith University",
    "latitude": -27.960345,
    "start_date": "2019-10-16"
  },
  {
    "end_date": "2019-11-22",
    "url": "https://bio-swc-bne.github.io/2019-11-20-GriffithUni-Python/",
    "country": "AU",
    "instructors": "Amanda Miotto",
    "venue": "Griffith University",
    "longitude": 153.052425,
    "slug": "2019-11-20-Griffith",
    "tag_name": "SWC",
    "helpers": null,
    "host_name": "Griffith University",
    "latitude": -27.552941,
    "start_date": "2019-11-20"
  }
]
